[
  {
    "code": "YMY",
    "name": "Central Railway Station",
    "city": "Montreal",
    "country": "Canada",
    "lat": 45.499722,
    "lng": -73.566111,
    "terminal": null,
    "gate": null,
    "timezone": "America/Montreal"
  },
  {
    "code": "YMX",
    "name": "Montreal Intl Mirabel",
    "city": "Montreal",
    "country": "Canada",
    "lat": 45.681944,
    "lng": -74.005278,
    "terminal": null,
    "gate": null,
    "timezone": "America/Montreal"
  },
  {
    "code": "YMT",
    "name": "Chapais Airport",
    "city": "Chibougamau",
    "country": "Canada",
    "lat": 49.7719,
    "lng": -74.5281,
    "terminal": null,
    "gate": null,
    "timezone": "America/Montreal"
  },
  {
    "code": "YND",
    "name": "Gatineau",
    "city": "Gatineau",
    "country": "Canada",
    "lat": 45.521694,
    "lng": -75.563589,
    "terminal": null,
    "gate": null,
    "timezone": "UTC"
  },
  {
    "code": "GDL",
    "name": "Don Miguel Hidalgo Y Costilla Intl",
    "city": "Guadalajara",
    "country": "Mexico",
    "lat": 20.5218,
    "lng": -103.311167,
    "terminal": null,
    "gate": null,
    "timezone": "America/Mexico_City"
  },
  {
    "code": "OGG",
    "name": "Kahului",
    "city": "Kahului",
    "country": "United States",
    "lat": 20.89865,
    "lng": -156.430458,
    "terminal": null,
    "gate": null,
    "timezone": "Pacific/Honolulu"
  },
  {
    "code": "YNC",
    "name": "Wemindji Airport",
    "city": "Wemindji",
    "country": "Canada",
    "lat": 53.0106,
    "lng": -78.8311,
    "terminal": null,
    "gate": null,
    "timezone": "America/Nipigon"
  },
  {
    "code": "YNB",
    "name": "Yenbo",
    "city": "Yenbo",
    "country": "Saudi Arabia",
    "lat": 24.144244,
    "lng": 38.06335,
    "terminal": null,
    "gate": null,
    "timezone": "Asia/Riyadh"
  },
  {
    "code": "YNA",
    "name": "Natashquan",
    "city": "Natashquan",
    "country": "Canada",
    "lat": 50.19,
    "lng": -61.789167,
    "terminal": null,
    "gate": null,
    "timezone": "America/Montreal"
  },
  {
    "code": "GDE",
    "name": "Gode Airport",
    "city": "Gode",
    "country": "Ethiopia",
    "lat": 5.935128,
    "lng": 43.578567,
    "terminal": null,
    "gate": null,
    "timezone": "Africa/Addis_Ababa"
  },
  {
    "code": "GDT",
    "name": "JAGS McCartney International Airport",
    "city": "Cockburn Town",
    "country": "Turks and Caicos Islands",
    "lat": 21.4445,
    "lng": -71.1423,
    "terminal": null,
    "gate": null,
    "timezone": "America/Grand_Turk"
  },
  {
    "code": "YNJ",
    "name": "Yanji Airport",
    "city": "Yanji",
    "country": "China",
    "lat": 42.8828,
    "lng": 129.451258,
    "terminal": null,
    "gate": null,
    "timezone": "Asia/Harbin"
  },
  {
    "code": "GDQ",
    "name": "Gondar",
    "city": "Gondar",
    "country": "Ethiopia",
    "lat": 12.5199,
    "lng": 37.434047,
    "terminal": null,
    "gate": null,
    "timezone": "Africa/Addis_Ababa"
  },
  {
    "code": "YNG",
    "name": "Youngstown Warren Rgnl",
    "city": "Youngstown",
    "country": "United States",
    "lat": 41.260736,
    "lng": -80.679097,
    "terminal": null,
    "gate": null,
    "timezone": "America/Detroit"
  },
  {
    "code": "GDO",
    "name": null,
    "city": null,
    "country": null,
    "lat": 0.0,
    "lng": 0.0,
    "terminal": null,
    "gate": null,
    "timezone": "America/Caracas"
  },
  {
    "code": "GDN",
    "name": "Lech Walesa",
    "city": "Gdansk",
    "country": "Poland",
    "lat": 54.377569,
    "lng": 18.466222,
    "terminal": null,
    "gate": null,
    "timezone": "Europe/Warsaw"
  },
  {
    "code": "YNE",
    "name": "Norway House Airport",
    "city": "Norway House",
    "country": "Canada",
    "lat": 53.9583,
    "lng": -97.8442,
    "terminal": null,
    "gate": null,
    "timezone": "UTC"
  },
  {
    "code": "YNS",
    "name": "Nemiscau Airport",
    "city": "Nemiscau",
    "country": "Canada",
    "lat": 51.6911,
    "lng": -76.1356,
    "terminal": null,
    "gate": null,
    "timezone": "America/Montreal"
  },
  {
    "code": "YNT",
    "name": "Laishan",
    "city": "Yantai",
    "country": "China",
    "lat": 37.401667,
    "lng": 121.371667,
    "terminal": null,
    "gate": null,
    "timezone": "Asia/Shanghai"
  },
  {
    "code": "GDX",
    "name": "Sokol",
    "city": "Magadan",
    "country": "Russia",
    "lat": 59.910989,
    "lng": 150.720439,
    "terminal": null,
    "gate": null,
    "timezone": "Asia/Magadan"
  },
  {
    "code": "OGS",
    "name": "Ogdensburg Intl",
    "city": "Ogdensburg",
    "country": "United States",
    "lat": 44.681854,
    "lng": -75.4655,
    "terminal": null,
    "gate": null,
    "timezone": "America/New_York"
  },
  {
    "code": "YNO",
    "name": "North Spirit Lake Airport",
    "city": "North Spirit Lake",
    "country": "Canada",
    "lat": 52.49,
    "lng": -92.9711,
    "terminal": null,
    "gate": null,
    "timezone": "UTC"
  },
  {
    "code": "YNZ",
    "name": "Yancheng Airport",
    "city": "Yancheng",
    "country": "China",
    "lat": 33.3856,
    "lng": 120.125,
    "terminal": null,
    "gate": null,
    "timezone": "Asia/Shanghai"
  },
  {
    "code": "YNY",
    "name": "Yangyang International Airport",
    "city": "Sokcho / Gangneung",
    "country": "South Korea",
    "lat": 38.061311,
    "lng": 128.669164,
    "terminal": null,
    "gate": null,
    "timezone": "Asia/Seoul"
  },
  {
    "code": "GEA",
    "name": "Magenta",
    "city": "Noumea",
    "country": "New Caledonia",
    "lat": -22.258278,
    "lng": 166.472806,
    "terminal": null,
    "gate": null,
    "timezone": "Pacific/Noumea"
  },
  {
    "code": "YOC",
    "name": "Old Crow",
    "city": "Old Crow",
    "country": "Canada",
    "lat": 67.570556,
    "lng": -139.839167,
    "terminal": null,
    "gate": null,
    "timezone": "America/Whitehorse"
  },
  {
    "code": "GEG",
    "name": "Spokane Intl",
    "city": "Spokane",
    "country": "United States",
    "lat": 47.619861,
    "lng": -117.533833,
    "terminal": null,
    "gate": null,
    "timezone": "America/Los_Angeles"
  },
  {
    "code": "GES",
    "name": "General Santos International Airport",
    "city": "General Santos City",
    "country": "Philippines",
    "lat": 6.106439,
    "lng": 125.2353,
    "terminal": null,
    "gate": null,
    "timezone": "Asia/Manila"
  },
  {
    "code": "YOJ",
    "name": "High Level",
    "city": "High Level",
    "country": "Canada",
    "lat": 58.621389,
    "lng": -117.164722,
    "terminal": null,
    "gate": null,
    "timezone": "America/Dawson_Creek"
  },
  {
    "code": "GER",
    "name": "Rafael Cabrera",
    "city": "Nueva Gerona",
    "country": "Cuba",
    "lat": 21.834689,
    "lng": -82.783819,
    "terminal": null,
    "gate": null,
    "timezone": "America/Havana"
  },
  {
    "code": "GET",
    "name": "Geraldton Airport",
    "city": "Geraldton",
    "country": "Australia",
    "lat": -28.7961,
    "lng": 114.707,
    "terminal": null,
    "gate": null,
    "timezone": "Australia/Perth"
  },
  {
    "code": "GEO",
    "name": "Cheddi Jagan Intl",
    "city": "Georgetown",
    "country": "Guyana",
    "lat": 6.498553,
    "lng": -58.254119,
    "terminal": null,
    "gate": null,
    "timezone": "America/Guyana"
  },
  {
    "code": "YOG",
    "name": "Ogoki Post Airport",
    "city": "Ogoki Post",
    "country": "Canada",
    "lat": 51.6586,
    "lng": -85.9017,
    "terminal": null,
    "gate": null,
    "timezone": "America/Nipigon"
  },
  {
    "code": "YOH",
    "name": "Oxford House Airport",
    "city": "Oxford House",
    "country": "Canada",
    "lat": 54.9333,
    "lng": -95.2789,
    "terminal": null,
    "gate": null,
    "timezone": "America/Winnipeg"
  },
  {
    "code": "OFI",
    "name": null,
    "city": null,
    "country": null,
    "lat": 0.0,
    "lng": 0.0,
    "terminal": null,
    "gate": null,
    "timezone": "Africa/Abidjan"
  },
  {
    "code": "GEV",
    "name": "Gallivare",
    "city": "Gallivare",
    "country": "Sweden",
    "lat": 67.132408,
    "lng": 20.814636,
    "terminal": null,
    "gate": null,
    "timezone": "Europe/Stockholm"
  },
  {
    "code": "YOO",
    "name": "Oshawa Airport",
    "city": "Oshawa",
    "country": "Canada",
    "lat": 43.9228,
    "lng": -78.895,
    "terminal": null,
    "gate": null,
    "timezone": "America/Toronto"
  },
  {
    "code": "YOP",
    "name": "Rainbow Lake Airport",
    "city": "Rainbow Lake",
    "country": "Canada",
    "lat": 58.491389,
    "lng": -119.407778,
    "terminal": null,
    "gate": null,
    "timezone": "America/Dawson_Creek"
  },
  {
    "code": "ODW",
    "name": null,
    "city": null,
    "country": null,
    "lat": 0.0,
    "lng": 0.0,
    "terminal": null,
    "gate": null,
    "timezone": "America/Los_Angeles"
  },
  {
    "code": "YKU",
    "name": "Chisasibi Airport",
    "city": "Chisasibi",
    "country": "Canada",
    "lat": 53.8056,
    "lng": -78.9169,
    "terminal": null,
    "gate": null,
    "timezone": "America/Nipigon"
  },
  {
    "code": "YKT",
    "name": null,
    "city": null,
    "country": null,
    "lat": 0.0,
    "lng": 0.0,
    "terminal": null,
    "gate": null,
    "timezone": "America/Vancouver"
  },
  {
    "code": "YKS",
    "name": "Yakutsk",
    "city": "Yakutsk",
    "country": "Russia",
    "lat": 62.09325,
    "lng": 129.770672,
    "terminal": null,
    "gate": null,
    "timezone": "Asia/Yakutsk"
  },
  {
    "code": "GFF",
    "name": "Griffith Airport",
    "city": "Griffith",
    "country": "Australia",
    "lat": -34.2508,
    "lng": 146.067,
    "terminal": null,
    "gate": null,
    "timezone": "Australia/Broken_Hill"
  },
  {
    "code": "ODY",
    "name": "Oudomxay",
    "city": "Muang Xay",
    "country": "Laos",
    "lat": 20.6827,
    "lng": 101.994,
    "terminal": null,
    "gate": null,
    "timezone": "Asia/Vientiane"
  },
  {
    "code": "GFN",
    "name": "Grafton Airport",
    "city": "Grafton",
    "country": "Australia",
    "lat": -29.7594,
    "lng": 153.03,
    "terminal": null,
    "gate": null,
    "timezone": "UTC"
  },
  {
    "code": "GFK",
    "name": "Grand Forks Intl",
    "city": "Grand Forks",
    "country": "United States",
    "lat": 47.949256,
    "lng": -97.176111,
    "terminal": null,
    "gate": null,
    "timezone": "America/North_Dakota/Center"
  },
  {
    "code": "YLE",
    "name": "Whatì Airport",
    "city": "Whatì",
    "country": "Canada",
    "lat": 63.1317,
    "lng": -117.246,
    "terminal": null,
    "gate": null,
    "timezone": "America/Yellowknife"
  },
  {
    "code": "YLC",
    "name": "Kimmirut Airport",
    "city": "Kimmirut",
    "country": "Canada",
    "lat": 62.85,
    "lng": -69.8833,
    "terminal": null,
    "gate": null,
    "timezone": "America/Iqaluit"
  },
  {
    "code": "YLH",
    "name": "Lansdowne House Airport",
    "city": "Lansdowne House",
    "country": "Canada",
    "lat": 52.1956,
    "lng": -87.9342,
    "terminal": null,
    "gate": null,
    "timezone": "America/Nipigon"
  },
  {
    "code": "YLL",
    "name": "Lloydminster",
    "city": "Lloydminster",
    "country": "Canada",
    "lat": 53.309166,
    "lng": -110.0725,
    "terminal": null,
    "gate": null,
    "timezone": "America/Edmonton"
  },
  {
    "code": "YLQ",
    "name": null,
    "city": null,
    "country": null,
    "lat": 0.0,
    "lng": 0.0,
    "terminal": null,
    "gate": null,
    "timezone": "America/Montreal"
  },
  {
    "code": "OER",
    "name": "Ornskoldsvik",
    "city": "Ornskoldsvik",
    "country": "Sweden",
    "lat": 63.408339,
    "lng": 18.990039,
    "terminal": null,
    "gate": null,
    "timezone": "Europe/Stockholm"
  },
  {
    "code": "YLW",
    "name": "Kelowna",
    "city": "Kelowna",
    "country": "Canada",
    "lat": 49.956112,
    "lng": -119.377778,
    "terminal": null,
    "gate": null,
    "timezone": "America/Vancouver"
  },
  {
    "code": "YMH",
    "name": "Mary's Harbour Airport",
    "city": "Mary's Harbour",
    "country": "Canada",
    "lat": 52.3028,
    "lng": -55.8472,
    "terminal": null,
    "gate": null,
    "timezone": "America/St_Johns"
  },
  {
    "code": "GGT",
    "name": "Exuma Intl",
    "city": "Great Exuma",
    "country": "Bahamas",
    "lat": 23.562631,
    "lng": -75.877958,
    "terminal": null,
    "gate": null,
    "timezone": "America/Nassau"
  },
  {
    "code": "ODN",
    "name": "Long Seridan Airport",
    "city": "Long Seridan",
    "country": "Malaysia",
    "lat": 3.967,
    "lng": 115.05,
    "terminal": null,
    "gate": null,
    "timezone": "Asia/Kuching"
  },
  {
    "code": "YMM",
    "name": "Fort Mcmurray",
    "city": "Fort Mcmurray",
    "country": "Canada",
    "lat": 56.653333,
    "lng": -111.221944,
    "terminal": null,
    "gate": null,
    "timezone": "America/Edmonton"
  },
  {
    "code": "YMN",
    "name": "Makkovik Airport",
    "city": "Makkovik",
    "country": "Canada",
    "lat": 55.0769,
    "lng": -59.1864,
    "terminal": null,
    "gate": null,
    "timezone": "America/Goose_Bay"
  },
  {
    "code": "YMO",
    "name": "Moosonee",
    "city": "Moosonee",
    "country": "Canada",
    "lat": 51.291111,
    "lng": -80.607778,
    "terminal": null,
    "gate": null,
    "timezone": "America/Nipigon"
  },
  {
    "code": "ODS",
    "name": "Odesa Intl",
    "city": "Odessa",
    "country": "Ukraine",
    "lat": 46.426767,
    "lng": 30.676464,
    "terminal": null,
    "gate": null,
    "timezone": "Europe/Simferopol"
  },
  {
    "code": "OKJ",
    "name": "Okayama",
    "city": "Okayama",
    "country": "Japan",
    "lat": 34.756944,
    "lng": 133.855278,
    "terminal": null,
    "gate": null,
    "timezone": "Asia/Tokyo"
  },
  {
    "code": "YIV",
    "name": "Island Lake Airport",
    "city": "Island Lake",
    "country": "Canada",
    "lat": 53.8572,
    "lng": -94.6536,
    "terminal": null,
    "gate": null,
    "timezone": "UTC"
  },
  {
    "code": "OKC",
    "name": "Will Rogers World",
    "city": "Oklahoma City",
    "country": "United States",
    "lat": 35.393089,
    "lng": -97.600733,
    "terminal": null,
    "gate": null,
    "timezone": "America/Chicago"
  },
  {
    "code": "YIW",
    "name": "Yiwu Airport",
    "city": "Yiwu",
    "country": "China",
    "lat": 29.3447,
    "lng": 120.032,
    "terminal": null,
    "gate": null,
    "timezone": "Asia/Shanghai"
  },
  {
    "code": "OKA",
    "name": "Naha",
    "city": "Okinawa",
    "country": "Japan",
    "lat": 26.195814,
    "lng": 127.645869,
    "terminal": null,
    "gate": null,
    "timezone": "Asia/Tokyo"
  },
  {
    "code": "GHB",
    "name": "Governors Harbour",
    "city": "Governor's Harbor",
    "country": "Bahamas",
    "lat": 25.284706,
    "lng": -76.331011,
    "terminal": null,
    "gate": null,
    "timezone": "America/Nassau"
  },
  {
    "code": "YIP",
    "name": "Willow Run",
    "city": "Detroit",
    "country": "United States",
    "lat": 42.237928,
    "lng": -83.530408,
    "terminal": null,
    "gate": null,
    "timezone": "America/New_York"
  },
  {
    "code": "GHA",
    "name": "Noumerat",
    "city": "Ghardaia",
    "country": "Algeria",
    "lat": 32.384106,
    "lng": 3.794114,
    "terminal": null,
    "gate": null,
    "timezone": "Africa/Algiers"
  },
  {
    "code": "OKY",
    "name": "Oakey Airport",
    "city": "Oakey",
    "country": "Australia",
    "lat": -27.411389,
    "lng": 151.735278,
    "terminal": null,
    "gate": null,
    "timezone": "Australia/Brisbane"
  },
  {
    "code": "OKR",
    "name": "Yorke Island Airport",
    "city": "Yorke Island",
    "country": "Australia",
    "lat": -9.75703,
    "lng": 143.411,
    "terminal": null,
    "gate": null,
    "timezone": "Australia/Lindeman"
  },
  {
    "code": "GHT",
    "name": "Ghat",
    "city": "Ghat",
    "country": "Libya",
    "lat": 25.145564,
    "lng": 10.142647,
    "terminal": null,
    "gate": null,
    "timezone": "Africa/Tripoli"
  },
  {
    "code": "YKA",
    "name": "Kamloops",
    "city": "Kamloops",
    "country": "Canada",
    "lat": 50.702222,
    "lng": -120.444444,
    "terminal": null,
    "gate": null,
    "timezone": "America/Vancouver"
  },
  {
    "code": "GIL",
    "name": "Gilgit",
    "city": "Gilgit",
    "country": "Pakistan",
    "lat": 35.918786,
    "lng": 74.333644,
    "terminal": null,
    "gate": null,
    "timezone": "Asia/Karachi"
  },
  {
    "code": "GIG",
    "name": "Galeao Antonio Carlos Jobim",
    "city": "Rio De Janeiro",
    "country": "Brazil",
    "lat": -22.808903,
    "lng": -43.243647,
    "terminal": null,
    "gate": null,
    "timezone": "America/Bahia"
  },
  {
    "code": "GIC",
    "name": "Boigu Airport",
    "city": "Boigu",
    "country": "Australia",
    "lat": -9.23278,
    "lng": 142.218,
    "terminal": null,
    "gate": null,
    "timezone": "Australia/Lindeman"
  },
  {
    "code": "GIB",
    "name": "Gibraltar",
    "city": "Gibraltar",
    "country": "Gibraltar",
    "lat": 36.151219,
    "lng": -5.349664,
    "terminal": null,
    "gate": null,
    "timezone": "Europe/Gibraltar"
  },
  {
    "code": "YJT",
    "name": "Stephenville",
    "city": "Stephenville",
    "country": "Canada",
    "lat": 48.544167,
    "lng": -58.549999,
    "terminal": null,
    "gate": null,
    "timezone": "America/Vancouver"
  },
  {
    "code": "GJA",
    "name": "Guanaja",
    "city": "Guanaja",
    "country": "Honduras",
    "lat": 16.445367,
    "lng": -85.906611,
    "terminal": null,
    "gate": null,
    "timezone": "America/Tegucigalpa"
  },
  {
    "code": "YKQ",
    "name": "Waskaganish Airport",
    "city": "Waskaganish",
    "country": "Canada",
    "lat": 51.4733,
    "lng": -78.7583,
    "terminal": null,
    "gate": null,
    "timezone": "America/Nipigon"
  },
  {
    "code": "GIZ",
    "name": "King Abdullah Bin Abdulaziz",
    "city": "Gizan",
    "country": "Saudi Arabia",
    "lat": 16.901111,
    "lng": 42.585833,
    "terminal": null,
    "gate": null,
    "timezone": "Asia/Riyadh"
  },
  {
    "code": "YKM",
    "name": "Yakima Air Terminal McAllister Field",
    "city": "Yakima",
    "country": "United States",
    "lat": 46.5682,
    "lng": -120.544,
    "terminal": null,
    "gate": null,
    "timezone": "America/Los_Angeles"
  },
  {
    "code": "YKL",
    "name": "Schefferville",
    "city": "Schefferville",
    "country": "Canada",
    "lat": 54.805278,
    "lng": -66.805278,
    "terminal": null,
    "gate": null,
    "timezone": "America/Iqaluit"
  },
  {
    "code": "YKG",
    "name": "Kangirsuk Airport",
    "city": "Kangirsuk",
    "country": "Canada",
    "lat": 60.0272,
    "lng": -69.9992,
    "terminal": null,
    "gate": null,
    "timezone": "America/Iqaluit"
  },
  {
    "code": "YKF",
    "name": "Waterloo",
    "city": "Waterloo",
    "country": "Canada",
    "lat": 43.460833,
    "lng": -80.378611,
    "terminal": null,
    "gate": null,
    "timezone": "America/Toronto"
  },
  {
    "code": "YGX",
    "name": "Gillam Airport",
    "city": "Gillam",
    "country": "Canada",
    "lat": 56.3575,
    "lng": -94.7106,
    "terminal": null,
    "gate": null,
    "timezone": "America/Rankin_Inlet"
  },
  {
    "code": "GJL",
    "name": "Jijel",
    "city": "Jijel",
    "country": "Algeria",
    "lat": 36.795136,
    "lng": 5.873608,
    "terminal": null,
    "gate": null,
    "timezone": "Africa/Algiers"
  },
  {
    "code": "YGV",
    "name": "Havre Saint-Pierre Airport",
    "city": "Havre-Saint-Pierre",
    "country": "Canada",
    "lat": 50.281944,
    "lng": -63.611389,
    "terminal": null,
    "gate": null,
    "timezone": "America/Montreal"
  },
  {
    "code": "YGW",
    "name": "Kuujjuarapik Airport",
    "city": "Kuujjuarapik",
    "country": "Canada",
    "lat": 55.2819,
    "lng": -77.7653,
    "terminal": null,
    "gate": null,
    "timezone": "America/Nipigon"
  },
  {
    "code": "YGZ",
    "name": "Grise Fiord Airport",
    "city": "Grise Fiord",
    "country": "Canada",
    "lat": 76.4261,
    "lng": -82.9092,
    "terminal": null,
    "gate": null,
    "timezone": "America/Pangnirtung"
  },
  {
    "code": "YGO",
    "name": "Gods Lake Narrows Airport",
    "city": "Gods Lake Narrows",
    "country": "Canada",
    "lat": 54.5589,
    "lng": -94.4914,
    "terminal": null,
    "gate": null,
    "timezone": "UTC"
  },
  {
    "code": "YGT",
    "name": "Igloolik Airport",
    "city": "Igloolik",
    "country": "Canada",
    "lat": 69.3647,
    "lng": -81.8161,
    "terminal": null,
    "gate": null,
    "timezone": "America/Pangnirtung"
  },
  {
    "code": "YGR",
    "name": "Iles De La Madeleine",
    "city": "Iles De La Madeleine",
    "country": "Canada",
    "lat": 47.424721,
    "lng": -61.778056,
    "terminal": null,
    "gate": null,
    "timezone": "America/Glace_Bay"
  },
  {
    "code": "OIT",
    "name": "Oita",
    "city": "Oita",
    "country": "Japan",
    "lat": 33.479444,
    "lng": 131.737222,
    "terminal": null,
    "gate": null,
    "timezone": "Asia/Tokyo"
  },
  {
    "code": "YHI",
    "name": "Ulukhaktok Holman",
    "city": "Holman Island",
    "country": "Canada",
    "lat": 70.762778,
    "lng": -117.806111,
    "terminal": null,
    "gate": null,
    "timezone": "America/Inuvik"
  },
  {
    "code": "YHG",
    "name": null,
    "city": null,
    "country": null,
    "lat": 0.0,
    "lng": 0.0,
    "terminal": null,
    "gate": null,
    "timezone": "America/St_Johns"
  },
  {
    "code": "YHM",
    "name": "Hamilton",
    "city": "Hamilton",
    "country": "Canada",
    "lat": 43.173611,
    "lng": -79.935,
    "terminal": null,
    "gate": null,
    "timezone": "America/Toronto"
  },
  {
    "code": "GKA",
    "name": "Goroka",
    "city": "Goroka",
    "country": "Papua New Guinea",
    "lat": -6.081689,
    "lng": 145.391881,
    "terminal": null,
    "gate": null,
    "timezone": "Pacific/Port_Moresby"
  },
  {
    "code": "YHK",
    "name": "Gjoa Haven",
    "city": "Gjoa Haven",
    "country": "Canada",
    "lat": 68.635556,
    "lng": -95.849722,
    "terminal": null,
    "gate": null,
    "timezone": "America/Cambridge_Bay"
  },
  {
    "code": "YHB",
    "name": "Hudson Bay",
    "city": "Hudson Bay",
    "country": "Canada",
    "lat": 52.816666,
    "lng": -102.31139,
    "terminal": null,
    "gate": null,
    "timezone": "America/Regina"
  },
  {
    "code": "YHA",
    "name": "Port Hope Simpson Airport",
    "city": "Port Hope Simpson",
    "country": "Canada",
    "lat": 52.5281,
    "lng": -56.2861,
    "terminal": null,
    "gate": null,
    "timezone": "America/St_Johns"
  },
  {
    "code": "GJT",
    "name": "Grand Junction Regional",
    "city": "Grand Junction",
    "country": "United States",
    "lat": 39.122413,
    "lng": -108.526735,
    "terminal": null,
    "gate": null,
    "timezone": "America/Denver"
  },
  {
    "code": "YHD",
    "name": "Dryden Rgnl",
    "city": "Dryden",
    "country": "Canada",
    "lat": 49.831667,
    "lng": -92.744167,
    "terminal": null,
    "gate": null,
    "timezone": "America/Rainy_River"
  },
  {
    "code": "YHY",
    "name": "Hay River",
    "city": "Hay River",
    "country": "Canada",
    "lat": 60.839722,
    "lng": -115.782778,
    "terminal": null,
    "gate": null,
    "timezone": "America/Yellowknife"
  },
  {
    "code": "OHD",
    "name": "Ohrid",
    "city": "Ohrid",
    "country": "Macedonia",
    "lat": 41.179956,
    "lng": 20.742325,
    "terminal": null,
    "gate": null,
    "timezone": "Europe/Belgrade"
  },
  {
    "code": "YHZ",
    "name": "Halifax Intl",
    "city": "Halifax",
    "country": "Canada",
    "lat": 44.880833,
    "lng": -63.50861,
    "terminal": null,
    "gate": null,
    "timezone": "America/Halifax"
  },
  {
    "code": "YHO",
    "name": "Hopedale Airport",
    "city": "Hopedale",
    "country": "Canada",
    "lat": 55.4483,
    "lng": -60.2286,
    "terminal": null,
    "gate": null,
    "timezone": "America/Goose_Bay"
  },
  {
    "code": "YHP",
    "name": "Poplar Hill Airport",
    "city": "Poplar Hill",
    "country": "Canada",
    "lat": 52.1133,
    "lng": -94.2556,
    "terminal": null,
    "gate": null,
    "timezone": "UTC"
  },
  {
    "code": "OGX",
    "name": "Ouargla",
    "city": "Ouargla",
    "country": "Algeria",
    "lat": 31.917223,
    "lng": 5.412778,
    "terminal": null,
    "gate": null,
    "timezone": "Africa/Algiers"
  },
  {
    "code": "OGZ",
    "name": "Beslan Airport",
    "city": "Beslan",
    "country": "Russia",
    "lat": 43.2051,
    "lng": 44.6066,
    "terminal": null,
    "gate": null,
    "timezone": "Europe/Moscow"
  },
  {
    "code": "YHR",
    "name": "Chevery Airport",
    "city": "Chevery",
    "country": "Canada",
    "lat": 50.4689,
    "lng": -59.6367,
    "terminal": null,
    "gate": null,
    "timezone": "America/Goose_Bay"
  },
  {
    "code": "YHS",
    "name": "Sechelt Aerodrome",
    "city": "Sechelt-Gibsons",
    "country": "Canada",
    "lat": 49.460556,
    "lng": -123.718611,
    "terminal": null,
    "gate": null,
    "timezone": "America/Vancouver"
  },
  {
    "code": "YHU",
    "name": "St Hubert",
    "city": "Montreal",
    "country": "Canada",
    "lat": 45.5175,
    "lng": -73.416944,
    "terminal": null,
    "gate": null,
    "timezone": "America/Montreal"
  },
  {
    "code": "YIH",
    "name": "Yichang Airport",
    "city": "Yichang",
    "country": "China",
    "lat": 30.671,
    "lng": 111.441,
    "terminal": null,
    "gate": null,
    "timezone": "Asia/Chongqing"
  },
  {
    "code": "YIK",
    "name": "Ivujivik Airport",
    "city": "Ivujivik",
    "country": "Canada",
    "lat": 62.4173,
    "lng": -77.9253,
    "terminal": null,
    "gate": null,
    "timezone": "America/Iqaluit"
  },
  {
    "code": "GLA",
    "name": "Glasgow",
    "city": "Glasgow",
    "country": "United Kingdom",
    "lat": 55.871944,
    "lng": -4.433056,
    "terminal": null,
    "gate": null,
    "timezone": "Europe/London"
  },
  {
    "code": "YIO",
    "name": "Pond Inlet",
    "city": "Pond Inlet",
    "country": "Canada",
    "lat": 72.683334,
    "lng": -77.966667,
    "terminal": null,
    "gate": null,
    "timezone": "America/Pangnirtung"
  },
  {
    "code": "YIN",
    "name": "Yining Airport",
    "city": "Yining",
    "country": "China",
    "lat": 43.9558,
    "lng": 81.3303,
    "terminal": null,
    "gate": null,
    "timezone": "Asia/Kashgar"
  },
  {
    "code": "OHO",
    "name": "Okhotsk Airport",
    "city": "Okhotsk",
    "country": "Russia",
    "lat": 59.4101,
    "lng": 143.057,
    "terminal": null,
    "gate": null,
    "timezone": "Asia/Vladivostok"
  },
  {
    "code": "YIF",
    "name": "St Augustin Airport",
    "city": "St-Augustin",
    "country": "Canada",
    "lat": 51.2117,
    "lng": -58.6583,
    "terminal": null,
    "gate": null,
    "timezone": "America/Goose_Bay"
  },
  {
    "code": "YFA",
    "name": "Fort Albany Airport",
    "city": "Fort Albany",
    "country": "Canada",
    "lat": 52.2014,
    "lng": -81.6969,
    "terminal": null,
    "gate": null,
    "timezone": "America/Nipigon"
  },
  {
    "code": "YFB",
    "name": "Iqaluit",
    "city": "Iqaluit",
    "country": "Canada",
    "lat": 63.75639,
    "lng": -68.555832,
    "terminal": null,
    "gate": null,
    "timezone": "America/Iqaluit"
  },
  {
    "code": "YFC",
    "name": "Fredericton",
    "city": "Fredericton",
    "country": "Canada",
    "lat": 45.868889,
    "lng": -66.537222,
    "terminal": null,
    "gate": null,
    "timezone": "America/Halifax"
  },
  {
    "code": "YFJ",
    "name": null,
    "city": null,
    "country": null,
    "lat": 0.0,
    "lng": 0.0,
    "terminal": null,
    "gate": null,
    "timezone": "America/Yellowknife"
  },
  {
    "code": "YFH",
    "name": "Fort Hope Airport",
    "city": "Fort Hope",
    "country": "Canada",
    "lat": 51.5619,
    "lng": -87.9078,
    "terminal": null,
    "gate": null,
    "timezone": "America/Nipigon"
  },
  {
    "code": "YES",
    "name": "Yasuj Airport",
    "city": "Yasuj",
    "country": "Iran",
    "lat": 30.700556,
    "lng": 51.545,
    "terminal": null,
    "gate": null,
    "timezone": "Asia/Tehran"
  },
  {
    "code": "YER",
    "name": "Fort Severn Airport",
    "city": "Fort Severn",
    "country": "Canada",
    "lat": 56.0189,
    "lng": -87.6761,
    "terminal": null,
    "gate": null,
    "timezone": "UTC"
  },
  {
    "code": "YEV",
    "name": "Inuvik Mike Zubko",
    "city": "Inuvik",
    "country": "Canada",
    "lat": 68.304167,
    "lng": -133.482778,
    "terminal": null,
    "gate": null,
    "timezone": "America/Inuvik"
  },
  {
    "code": "YGB",
    "name": "Texada Gillies Bay Airport",
    "city": "Texada",
    "country": "Canada",
    "lat": 49.6942,
    "lng": -124.518,
    "terminal": null,
    "gate": null,
    "timezone": "America/Vancouver"
  },
  {
    "code": "YGL",
    "name": "La Grande Riviere",
    "city": "La Grande Riviere",
    "country": "Canada",
    "lat": 53.625278,
    "lng": -77.704167,
    "terminal": null,
    "gate": null,
    "timezone": "America/Nipigon"
  },
  {
    "code": "YGJ",
    "name": "Yonago Kitaro",
    "city": "Miho",
    "country": "Japan",
    "lat": 35.492222,
    "lng": 133.236389,
    "terminal": null,
    "gate": null,
    "timezone": "Asia/Tokyo"
  },
  {
    "code": "YGH",
    "name": "Fort Good Hope",
    "city": "Fort Good Hope",
    "country": "Canada",
    "lat": 66.26666667,
    "lng": -128.65,
    "terminal": null,
    "gate": null,
    "timezone": "America/Inuvik"
  },
  {
    "code": "YGG",
    "name": null,
    "city": null,
    "country": null,
    "lat": 0.0,
    "lng": 0.0,
    "terminal": null,
    "gate": null,
    "timezone": "America/Vancouver"
  },
  {
    "code": "YFS",
    "name": "Fort Simpson",
    "city": "Fort Simpson",
    "country": "Canada",
    "lat": 61.760153,
    "lng": -121.236525,
    "terminal": null,
    "gate": null,
    "timezone": "America/Dawson_Creek"
  },
  {
    "code": "YFO",
    "name": "Flin Flon",
    "city": "Flin Flon",
    "country": "Canada",
    "lat": 54.678055,
    "lng": -101.681667,
    "terminal": null,
    "gate": null,
    "timezone": "America/Regina"
  },
  {
    "code": "YFX",
    "name": "St. Lewis (Fox Harbour) Airport",
    "city": "St. Lewis",
    "country": "Canada",
    "lat": 52.3728,
    "lng": -55.6739,
    "terminal": null,
    "gate": null,
    "timezone": "America/St_Johns"
  },
  {
    "code": "YDA",
    "name": "Dawson City",
    "city": "Dawson",
    "country": "Canada",
    "lat": 64.043056,
    "lng": -139.127778,
    "terminal": null,
    "gate": null,
    "timezone": "America/Dawson"
  },
  {
    "code": "YDF",
    "name": "Deer Lake",
    "city": "Deer Lake",
    "country": "Canada",
    "lat": 49.210833,
    "lng": -57.391388,
    "terminal": null,
    "gate": null,
    "timezone": "America/St_Johns"
  },
  {
    "code": "YCK",
    "name": "Colville Lake Airport",
    "city": "Colville Lake",
    "country": "Canada",
    "lat": 67.0333,
    "lng": -126.083,
    "terminal": null,
    "gate": null,
    "timezone": "America/Inuvik"
  },
  {
    "code": "YCM",
    "name": null,
    "city": null,
    "country": null,
    "lat": 0.0,
    "lng": 0.0,
    "terminal": null,
    "gate": null,
    "timezone": "America/Toronto"
  },
  {
    "code": "YCO",
    "name": "Kugluktuk",
    "city": "Coppermine",
    "country": "Canada",
    "lat": 67.816667,
    "lng": -115.143889,
    "terminal": null,
    "gate": null,
    "timezone": "America/Inuvik"
  },
  {
    "code": "YCS",
    "name": "Chesterfield Inlet Airport",
    "city": "Chesterfield Inlet",
    "country": "Canada",
    "lat": 63.3469,
    "lng": -90.7311,
    "terminal": null,
    "gate": null,
    "timezone": "America/Rankin_Inlet"
  },
  {
    "code": "YCR",
    "name": "Cross Lake - Charlie Sinclair Memorial Airport",
    "city": "Cross Lake",
    "country": "Canada",
    "lat": 54.610833,
    "lng": -97.760278,
    "terminal": null,
    "gate": null,
    "timezone": "UTC"
  },
  {
    "code": "YCY",
    "name": "Clyde River",
    "city": "Clyde River",
    "country": "Canada",
    "lat": 70.486111,
    "lng": -68.516667,
    "terminal": null,
    "gate": null,
    "timezone": "America/Pangnirtung"
  },
  {
    "code": "YEG",
    "name": "Edmonton Intl",
    "city": "Edmonton",
    "country": "Canada",
    "lat": 53.309723,
    "lng": -113.579722,
    "terminal": null,
    "gate": null,
    "timezone": "America/Edmonton"
  },
  {
    "code": "YEK",
    "name": "Arviat",
    "city": "Eskimo Point",
    "country": "Canada",
    "lat": 61.094166,
    "lng": -94.070833,
    "terminal": null,
    "gate": null,
    "timezone": "America/Rankin_Inlet"
  },
  {
    "code": "YEI",
    "name": "Yenisehir Airport",
    "city": "Yenisehir",
    "country": "Turkey",
    "lat": 40.255208,
    "lng": 29.562569,
    "terminal": null,
    "gate": null,
    "timezone": "Europe/Istanbul"
  },
  {
    "code": "YDN",
    "name": "Dauphin Barker",
    "city": "Dauphin",
    "country": "Canada",
    "lat": 51.100834,
    "lng": -100.0525,
    "terminal": null,
    "gate": null,
    "timezone": "America/Winnipeg"
  },
  {
    "code": "YDQ",
    "name": "Dawson Creek",
    "city": "Dawson Creek",
    "country": "Canada",
    "lat": 55.742333,
    "lng": -120.183,
    "terminal": null,
    "gate": null,
    "timezone": "America/Dawson_Creek"
  },
  {
    "code": "YDP",
    "name": "Nain Airport",
    "city": "Nain",
    "country": "Canada",
    "lat": 56.5492,
    "lng": -61.6803,
    "terminal": null,
    "gate": null,
    "timezone": "America/Goose_Bay"
  },
  {
    "code": "YBG",
    "name": "Bagotville",
    "city": "Bagotville",
    "country": "Canada",
    "lat": 48.330555,
    "lng": -70.996391,
    "terminal": null,
    "gate": null,
    "timezone": "America/Montreal"
  },
  {
    "code": "YBB",
    "name": "Kugaaruk",
    "city": "Pelly Bay",
    "country": "Canada",
    "lat": 68.534444,
    "lng": -89.808056,
    "terminal": null,
    "gate": null,
    "timezone": "America/Cambridge_Bay"
  },
  {
    "code": "YBC",
    "name": "Baie Comeau",
    "city": "Baie Comeau",
    "country": "Canada",
    "lat": 49.1325,
    "lng": -68.204444,
    "terminal": null,
    "gate": null,
    "timezone": "America/Montreal"
  },
  {
    "code": "YAY",
    "name": "St Anthony",
    "city": "St. Anthony",
    "country": "Canada",
    "lat": 51.391944,
    "lng": -56.083056,
    "terminal": null,
    "gate": null,
    "timezone": "America/St_Johns"
  },
  {
    "code": "YAX",
    "name": "Wapekeka Airport",
    "city": "Angling Lake",
    "country": "Canada",
    "lat": 53.8492,
    "lng": -89.5794,
    "terminal": null,
    "gate": null,
    "timezone": "America/Inuvik"
  },
  {
    "code": "YAZ",
    "name": "Tofino",
    "city": "Tofino",
    "country": "Canada",
    "lat": 49.082222,
    "lng": -125.7725,
    "terminal": null,
    "gate": null,
    "timezone": "America/Vancouver"
  },
  {
    "code": "YAT",
    "name": "Attawapiskat Airport",
    "city": "Attawapiskat",
    "country": "Canada",
    "lat": 52.9275,
    "lng": -82.4319,
    "terminal": null,
    "gate": null,
    "timezone": "America/Nipigon"
  },
  {
    "code": "OCC",
    "name": "Francisco De Orellana",
    "city": "Coca",
    "country": "Ecuador",
    "lat": -0.462886,
    "lng": -76.986842,
    "terminal": null,
    "gate": null,
    "timezone": "America/Guayaquil"
  },
  {
    "code": "YAP",
    "name": "Yap Intl",
    "city": "Yap",
    "country": "Micronesia",
    "lat": 9.498911,
    "lng": 138.082497,
    "terminal": null,
    "gate": null,
    "timezone": "Pacific/Chuuk"
  },
  {
    "code": "OBX",
    "name": "Obo Airport",
    "city": "Obo",
    "country": "Papua New Guinea",
    "lat": -7.583,
    "lng": 141.317,
    "terminal": null,
    "gate": null,
    "timezone": "Pacific/Port_Moresby"
  },
  {
    "code": "YAM",
    "name": "Sault Ste Marie",
    "city": "Sault Sainte Marie",
    "country": "Canada",
    "lat": 46.485001,
    "lng": -84.509445,
    "terminal": null,
    "gate": null,
    "timezone": "America/Nipigon"
  },
  {
    "code": "YAK",
    "name": "Yakutat",
    "city": "Yakutat",
    "country": "United States",
    "lat": 59.3012,
    "lng": -139.3937,
    "terminal": null,
    "gate": null,
    "timezone": "America/Yakutat"
  },
  {
    "code": "OBU",
    "name": "Kobuk Airport",
    "city": "Kobuk",
    "country": "United States",
    "lat": 66.912222,
    "lng": -156.897222,
    "terminal": null,
    "gate": null,
    "timezone": "America/Nome"
  },
  {
    "code": "GAX",
    "name": "Gamba",
    "city": "Gamba",
    "country": "Gabon",
    "lat": -2.71016,
    "lng": 9.96062,
    "terminal": null,
    "gate": null,
    "timezone": "Africa/Libreville"
  },
  {
    "code": "GAY",
    "name": "Gaya",
    "city": "Gaya",
    "country": "India",
    "lat": 24.744308,
    "lng": 84.951175,
    "terminal": null,
    "gate": null,
    "timezone": "Asia/Kolkata"
  },
  {
    "code": "OBO",
    "name": "Obihiro",
    "city": "Obihiro",
    "country": "Japan",
    "lat": 42.733333,
    "lng": 143.217222,
    "terminal": null,
    "gate": null,
    "timezone": "Asia/Tokyo"
  },
  {
    "code": "GAU",
    "name": "Lokpriya Gopinath Bordoloi International Airport",
    "city": "Guwahati",
    "country": "India",
    "lat": 26.106092,
    "lng": 91.585939,
    "terminal": null,
    "gate": null,
    "timezone": "Asia/Kolkata"
  },
  {
    "code": "OBN",
    "name": "Oban Airport",
    "city": "North Connel",
    "country": "United Kingdom",
    "lat": 56.464,
    "lng": -5.4,
    "terminal": null,
    "gate": null,
    "timezone": "Europe/London"
  },
  {
    "code": "YCD",
    "name": "Nanaimo",
    "city": "Nanaimo",
    "country": "Canada",
    "lat": 49.052333,
    "lng": -123.870167,
    "terminal": null,
    "gate": null,
    "timezone": "America/Vancouver"
  },
  {
    "code": "YCC",
    "name": "Cornwall Regional Airport",
    "city": "Cornwall",
    "country": "Canada",
    "lat": 45.092778,
    "lng": -74.567778,
    "terminal": null,
    "gate": null,
    "timezone": "America/Montreal"
  },
  {
    "code": "YCB",
    "name": "Cambridge Bay",
    "city": "Cambridge Bay",
    "country": "Canada",
    "lat": 69.108055,
    "lng": -105.138333,
    "terminal": null,
    "gate": null,
    "timezone": "America/Cambridge_Bay"
  },
  {
    "code": "YCA",
    "name": null,
    "city": null,
    "country": null,
    "lat": 0.0,
    "lng": 0.0,
    "terminal": null,
    "gate": null,
    "timezone": "America/Vancouver"
  },
  {
    "code": "GAN",
    "name": "Gan Island Airport",
    "city": "Gan Island",
    "country": "Maldives",
    "lat": -0.693342,
    "lng": 73.1556,
    "terminal": null,
    "gate": null,
    "timezone": "Indian/Maldives"
  },
  {
    "code": "GAO",
    "name": "Mariana Grajales",
    "city": "Guantanamo",
    "country": "Cuba",
    "lat": 20.085419,
    "lng": -75.158328,
    "terminal": null,
    "gate": null,
    "timezone": "America/Havana"
  },
  {
    "code": "GAL",
    "name": "Edward G Pitka Sr",
    "city": "Galena",
    "country": "United States",
    "lat": 64.736178,
    "lng": -156.937417,
    "terminal": null,
    "gate": null,
    "timezone": "America/Nome"
  },
  {
    "code": "GAM",
    "name": "Gambell Airport",
    "city": "Gambell",
    "country": "United States",
    "lat": 63.7668,
    "lng": -171.733,
    "terminal": null,
    "gate": null,
    "timezone": "America/Nome"
  },
  {
    "code": "GAJ",
    "name": "Yamagata",
    "city": "Yamagata",
    "country": "Japan",
    "lat": 38.411894,
    "lng": 140.371331,
    "terminal": null,
    "gate": null,
    "timezone": "Asia/Tokyo"
  },
  {
    "code": "YBZ",
    "name": "Union Station",
    "city": "Toronto",
    "country": "Canada",
    "lat": 43.645278,
    "lng": -79.380556,
    "terminal": null,
    "gate": null,
    "timezone": "America/Toronto"
  },
  {
    "code": "YBW",
    "name": "Calgary Springbank Airport",
    "city": "Calgary",
    "country": "Canada",
    "lat": 51.1031,
    "lng": -114.374,
    "terminal": null,
    "gate": null,
    "timezone": "America/Vancouver"
  },
  {
    "code": "YBX",
    "name": "Lourdes De Blanc Sablon Airport",
    "city": "Lourdes-De-Blanc-Sablon",
    "country": "Canada",
    "lat": 51.4436,
    "lng": -57.1853,
    "terminal": null,
    "gate": null,
    "timezone": "America/Goose_Bay"
  },
  {
    "code": "GAF",
    "name": "Gafsa",
    "city": "Gafsa",
    "country": "Tunisia",
    "lat": 34.422022,
    "lng": 8.822503,
    "terminal": null,
    "gate": null,
    "timezone": "UTC"
  },
  {
    "code": "YBV",
    "name": "Berens River",
    "city": "Berens River",
    "country": "Canada",
    "lat": 52.358889,
    "lng": -97.018333,
    "terminal": null,
    "gate": null,
    "timezone": "UTC"
  },
  {
    "code": "GAE",
    "name": "Gabes",
    "city": "Gabes",
    "country": "Tunisia",
    "lat": 33.876919,
    "lng": 10.103333,
    "terminal": null,
    "gate": null,
    "timezone": "UTC"
  },
  {
    "code": "YBT",
    "name": "Brochet Airport",
    "city": "Brochet",
    "country": "Canada",
    "lat": 57.889444,
    "lng": -101.679167,
    "terminal": null,
    "gate": null,
    "timezone": "America/Rankin_Inlet"
  },
  {
    "code": "YBR",
    "name": "Brandon Muni",
    "city": "Brandon",
    "country": "Canada",
    "lat": 49.91,
    "lng": -99.951944,
    "terminal": null,
    "gate": null,
    "timezone": "UTC"
  },
  {
    "code": "YBP",
    "name": "Yibin",
    "city": "Yibin",
    "country": "China",
    "lat": 28.800278,
    "lng": 104.544444,
    "terminal": null,
    "gate": null,
    "timezone": "Asia/Chongqing"
  },
  {
    "code": "OAX",
    "name": "Xoxocotlan Intl",
    "city": "Oaxaca",
    "country": "Mexico",
    "lat": 16.999906,
    "lng": -96.726639,
    "terminal": null,
    "gate": null,
    "timezone": "America/Mexico_City"
  },
  {
    "code": "YBK",
    "name": "Baker Lake",
    "city": "Baker Lake",
    "country": "Canada",
    "lat": 64.298889,
    "lng": -96.077778,
    "terminal": null,
    "gate": null,
    "timezone": "America/Rankin_Inlet"
  },
  {
    "code": "YBL",
    "name": "Campbell River",
    "city": "Campbell River",
    "country": "Canada",
    "lat": 49.950832,
    "lng": -125.270833,
    "terminal": null,
    "gate": null,
    "timezone": "America/Vancouver"
  },
  {
    "code": "YBI",
    "name": "Black Tickle Airport",
    "city": "Black Tickle",
    "country": "Canada",
    "lat": 53.47,
    "lng": -55.7875,
    "terminal": null,
    "gate": null,
    "timezone": "America/Goose_Bay"
  },
  {
    "code": "OAJ",
    "name": "Albert J Ellis",
    "city": "Jacksonville NC",
    "country": "United States",
    "lat": 34.829164,
    "lng": -77.612139,
    "terminal": null,
    "gate": null,
    "timezone": "America/Kentucky/Monticello"
  },
  {
    "code": "GBT",
    "name": "Gorgan Airport",
    "city": "Gorgan",
    "country": "Iran",
    "lat": 36.909381,
    "lng": 54.401339,
    "terminal": null,
    "gate": null,
    "timezone": "Asia/Tehran"
  },
  {
    "code": "OAK",
    "name": "Metropolitan Oakland Intl",
    "city": "Oakland",
    "country": "United States",
    "lat": 37.721278,
    "lng": -122.220722,
    "terminal": null,
    "gate": null,
    "timezone": "America/Los_Angeles"
  },
  {
    "code": "OAG",
    "name": "Orange Airport",
    "city": "Orange",
    "country": "Australia",
    "lat": -33.3817,
    "lng": 149.133,
    "terminal": null,
    "gate": null,
    "timezone": "Australia/Broken_Hill"
  },
  {
    "code": "GBD",
    "name": null,
    "city": null,
    "country": null,
    "lat": 0.0,
    "lng": 0.0,
    "terminal": null,
    "gate": null,
    "timezone": "America/North_Dakota/Center"
  },
  {
    "code": "GBE",
    "name": "Sir Seretse Khama Intl",
    "city": "Gaberone",
    "country": "Botswana",
    "lat": -24.555225,
    "lng": 25.918208,
    "terminal": null,
    "gate": null,
    "timezone": "Africa/Gaborone"
  },
  {
    "code": "GBJ",
    "name": "Les Bases Airport",
    "city": "Grand Bourg",
    "country": "Guadeloupe",
    "lat": 15.86875,
    "lng": -61.270022,
    "terminal": null,
    "gate": null,
    "timezone": "America/Guadeloupe"
  },
  {
    "code": "YAC",
    "name": "Cat Lake Airport",
    "city": "Cat Lake",
    "country": "Canada",
    "lat": 51.7272,
    "lng": -91.8244,
    "terminal": null,
    "gate": null,
    "timezone": "UTC"
  },
  {
    "code": "YAA",
    "name": "Anahim Lake Airport",
    "city": "Anahim Lake",
    "country": "Canada",
    "lat": 52.4525,
    "lng": -125.303,
    "terminal": null,
    "gate": null,
    "timezone": "America/Vancouver"
  },
  {
    "code": "YAG",
    "name": "Fort Frances Municipal Airport",
    "city": "Fort Frances",
    "country": "Canada",
    "lat": 48.6542,
    "lng": -93.4397,
    "terminal": null,
    "gate": null,
    "timezone": "America/Rainy_River"
  },
  {
    "code": "GCM",
    "name": "Owen Roberts Intl",
    "city": "Georgetown",
    "country": "Cayman Islands",
    "lat": 19.292778,
    "lng": -81.35775,
    "terminal": null,
    "gate": null,
    "timezone": "America/Cayman"
  },
  {
    "code": "GCK",
    "name": "Garden City Rgnl",
    "city": "Garden City",
    "country": "United States",
    "lat": 37.927528,
    "lng": -100.724417,
    "terminal": null,
    "gate": null,
    "timezone": "America/North_Dakota/Center"
  },
  {
    "code": "GCI",
    "name": "Guernsey",
    "city": "Guernsey",
    "country": "Guernsey",
    "lat": 49.434956,
    "lng": -2.601969,
    "terminal": null,
    "gate": null,
    "timezone": "Europe/London"
  },
  {
    "code": "GCC",
    "name": "Gillette-Campbell County Airport",
    "city": "Gillette",
    "country": "United States",
    "lat": 44.3489167,
    "lng": -105.5393611,
    "terminal": null,
    "gate": null,
    "timezone": "America/Denver"
  },
  {
    "code": "FSM",
    "name": "Fort Smith Rgnl",
    "city": "Fort Smith",
    "country": "United States",
    "lat": 35.336583,
    "lng": -94.367444,
    "terminal": null,
    "gate": null,
    "timezone": "America/Chicago"
  },
  {
    "code": "FSP",
    "name": "St Pierre",
    "city": "St.-pierre",
    "country": "Saint Pierre and Miquelon",
    "lat": 46.762904,
    "lng": -56.173088,
    "terminal": null,
    "gate": null,
    "timezone": "America/Miquelon"
  },
  {
    "code": "FTA",
    "name": "Futuna Airport",
    "city": "Futuna Island",
    "country": "Vanuatu",
    "lat": -19.5164,
    "lng": 170.232,
    "terminal": null,
    "gate": null,
    "timezone": "Pacific/Efate"
  },
  {
    "code": "FTE",
    "name": "El Calafate",
    "city": "El Calafate",
    "country": "Argentina",
    "lat": -50.280322,
    "lng": -72.053103,
    "terminal": null,
    "gate": null,
    "timezone": "America/Argentina/Rio_Gallegos"
  },
  {
    "code": "FRO",
    "name": "Floro",
    "city": "Floro",
    "country": "Norway",
    "lat": 61.583611,
    "lng": 5.024722,
    "terminal": null,
    "gate": null,
    "timezone": "Europe/Oslo"
  },
  {
    "code": "FRL",
    "name": "Forli",
    "city": "Forli",
    "country": "Italy",
    "lat": 44.194753,
    "lng": 12.070094,
    "terminal": null,
    "gate": null,
    "timezone": "Europe/Rome"
  },
  {
    "code": "FRS",
    "name": "Mundo Maya International",
    "city": "Flores",
    "country": "Guatemala",
    "lat": 16.913819,
    "lng": -89.866383,
    "terminal": null,
    "gate": null,
    "timezone": "America/Guatemala"
  },
  {
    "code": "FRW",
    "name": "Francistown",
    "city": "Francistown",
    "country": "Botswana",
    "lat": -21.159597,
    "lng": 27.474525,
    "terminal": null,
    "gate": null,
    "timezone": "Africa/Gaborone"
  },
  {
    "code": "FRU",
    "name": "Manas",
    "city": "Bishkek",
    "country": "Kyrgyzstan",
    "lat": 43.061306,
    "lng": 74.477556,
    "terminal": null,
    "gate": null,
    "timezone": "Asia/Bishkek"
  },
  {
    "code": "FSD",
    "name": "Sioux Falls",
    "city": "Sioux Falls",
    "country": "United States",
    "lat": 43.582014,
    "lng": -96.741914,
    "terminal": null,
    "gate": null,
    "timezone": "America/North_Dakota/Center"
  },
  {
    "code": "FSC",
    "name": "Sud Corse",
    "city": "Figari",
    "country": "France",
    "lat": 41.500557,
    "lng": 9.097777,
    "terminal": null,
    "gate": null,
    "timezone": "Europe/Paris"
  },
  {
    "code": "OXB",
    "name": "Osvaldo Vieira International Airport",
    "city": "Bissau",
    "country": "Guinea-Bissau",
    "lat": 11.89485,
    "lng": -15.653681,
    "terminal": null,
    "gate": null,
    "timezone": "Africa/Bissau"
  },
  {
    "code": "FUT",
    "name": "Pointe Vele Airport",
    "city": "Futuna Island",
    "country": "Wallis and Futuna",
    "lat": -14.3114,
    "lng": -178.066,
    "terminal": null,
    "gate": null,
    "timezone": "Pacific/Wallis"
  },
  {
    "code": "OTR",
    "name": "Coto 47",
    "city": "Coto 47",
    "country": "Costa Rica",
    "lat": 8.601556,
    "lng": -82.968614,
    "terminal": null,
    "gate": null,
    "timezone": "America/Costa_Rica"
  },
  {
    "code": "OTP",
    "name": "Henri Coanda",
    "city": "Bucharest",
    "country": "Romania",
    "lat": 44.572161,
    "lng": 26.102178,
    "terminal": null,
    "gate": null,
    "timezone": "Europe/Bucharest"
  },
  {
    "code": "OTZ",
    "name": "Ralph Wien Mem",
    "city": "Kotzebue",
    "country": "United States",
    "lat": 66.884678,
    "lng": -162.59855,
    "terminal": null,
    "gate": null,
    "timezone": "America/Nome"
  },
  {
    "code": "OUE",
    "name": "Ouesso",
    "city": "Ouesso",
    "country": "Congo (Kinshasa)",
    "lat": 1.615994,
    "lng": 16.037917,
    "terminal": null,
    "gate": null,
    "timezone": "UTC"
  },
  {
    "code": "OUD",
    "name": "Angads",
    "city": "Oujda",
    "country": "Morocco",
    "lat": 34.78715,
    "lng": -1.923986,
    "terminal": null,
    "gate": null,
    "timezone": "Africa/Casablanca"
  },
  {
    "code": "OUA",
    "name": "Ouagadougou",
    "city": "Ouagadougou",
    "country": "Burkina Faso",
    "lat": 12.353194,
    "lng": -1.512417,
    "terminal": null,
    "gate": null,
    "timezone": "Africa/Ouagadougou"
  },
  {
    "code": "OUL",
    "name": "Oulu",
    "city": "Oulu",
    "country": "Finland",
    "lat": 64.930061,
    "lng": 25.354564,
    "terminal": null,
    "gate": null,
    "timezone": "Europe/Helsinki"
  },
  {
    "code": "FTU",
    "name": "Tolagnaro",
    "city": "Tolagnaro",
    "country": "Madagascar",
    "lat": -25.038056,
    "lng": 46.956111,
    "terminal": null,
    "gate": null,
    "timezone": "Indian/Antananarivo"
  },
  {
    "code": "XZC",
    "name": null,
    "city": null,
    "country": null,
    "lat": 0.0,
    "lng": 0.0,
    "terminal": null,
    "gate": null,
    "timezone": "America/Toronto"
  },
  {
    "code": "XZB",
    "name": null,
    "city": null,
    "country": null,
    "lat": 0.0,
    "lng": 0.0,
    "terminal": null,
    "gate": null,
    "timezone": "America/Montreal"
  },
  {
    "code": "XZP",
    "name": null,
    "city": null,
    "country": null,
    "lat": 0.0,
    "lng": 0.0,
    "terminal": null,
    "gate": null,
    "timezone": "America/Montreal"
  },
  {
    "code": "XZM",
    "name": "Macau Ferry Pier",
    "city": "Macau",
    "country": "Macau",
    "lat": 22.197075,
    "lng": 113.558911,
    "terminal": null,
    "gate": null,
    "timezone": "Asia/Macau"
  },
  {
    "code": "XZL",
    "name": "Train Station",
    "city": "Edmonton",
    "country": "Canada",
    "lat": 53.5789,
    "lng": -113.5307,
    "terminal": null,
    "gate": null,
    "timezone": "America/Edmonton"
  },
  {
    "code": "XZJ",
    "name": null,
    "city": null,
    "country": null,
    "lat": 0.0,
    "lng": 0.0,
    "terminal": null,
    "gate": null,
    "timezone": "Asia/Tokyo"
  },
  {
    "code": "FUE",
    "name": "Fuerteventura",
    "city": "Fuerteventura",
    "country": "Spain",
    "lat": 28.452717,
    "lng": -13.863761,
    "terminal": null,
    "gate": null,
    "timezone": "Atlantic/Canary"
  },
  {
    "code": "XZU",
    "name": null,
    "city": null,
    "country": null,
    "lat": 0.0,
    "lng": 0.0,
    "terminal": null,
    "gate": null,
    "timezone": "America/New_York"
  },
  {
    "code": "XZR",
    "name": null,
    "city": null,
    "country": null,
    "lat": 0.0,
    "lng": 0.0,
    "terminal": null,
    "gate": null,
    "timezone": "America/Montreal"
  },
  {
    "code": "FUN",
    "name": "Funafuti International",
    "city": "Funafuti",
    "country": "Tuvalu",
    "lat": -8.525,
    "lng": 179.196389,
    "terminal": null,
    "gate": null,
    "timezone": "Pacific/Funafuti"
  },
  {
    "code": "OVD",
    "name": "Asturias",
    "city": "Aviles",
    "country": "Spain",
    "lat": 43.563567,
    "lng": -6.034622,
    "terminal": null,
    "gate": null,
    "timezone": "Europe/Madrid"
  },
  {
    "code": "FUK",
    "name": "Fukuoka",
    "city": "Fukuoka",
    "country": "Japan",
    "lat": 33.585942,
    "lng": 130.450686,
    "terminal": null,
    "gate": null,
    "timezone": "Asia/Tokyo"
  },
  {
    "code": "OVB",
    "name": "Tolmachevo",
    "city": "Novosibirsk",
    "country": "Russia",
    "lat": 55.012622,
    "lng": 82.650656,
    "terminal": null,
    "gate": null,
    "timezone": "Asia/Novosibirsk"
  },
  {
    "code": "FUG",
    "name": "Fuyang Airport",
    "city": "Fuyang",
    "country": "China",
    "lat": 32.9,
    "lng": 115.816667,
    "terminal": null,
    "gate": null,
    "timezone": "Asia/Shanghai"
  },
  {
    "code": "OZZ",
    "name": "Ouarzazate",
    "city": "Ouarzazate",
    "country": "Morocco",
    "lat": 30.939053,
    "lng": -6.909431,
    "terminal": null,
    "gate": null,
    "timezone": "Africa/Casablanca"
  },
  {
    "code": "XYD",
    "name": "Lyon Part-Dieu Railway",
    "city": "Lyon",
    "country": "France",
    "lat": 46.0,
    "lng": 5.0,
    "terminal": null,
    "gate": null,
    "timezone": "Europe/Paris"
  },
  {
    "code": "FWA",
    "name": "Fort Wayne",
    "city": "Fort Wayne",
    "country": "United States",
    "lat": 40.978472,
    "lng": -85.195139,
    "terminal": null,
    "gate": null,
    "timezone": "America/Indiana/Knox"
  },
  {
    "code": "OXR",
    "name": "Oxnard - Ventura County",
    "city": "Oxnard",
    "country": "United States",
    "lat": 34.200833,
    "lng": -119.207222,
    "terminal": null,
    "gate": null,
    "timezone": "America/Los_Angeles"
  },
  {
    "code": "FYU",
    "name": "Fort Yukon",
    "city": "Fort Yukon",
    "country": "United States",
    "lat": 66.571492,
    "lng": -145.250417,
    "terminal": null,
    "gate": null,
    "timezone": "America/Anchorage"
  },
  {
    "code": "OYG",
    "name": "Moyo Airport",
    "city": "Moyo",
    "country": "Uganda",
    "lat": 3.633,
    "lng": 31.75,
    "terminal": null,
    "gate": null,
    "timezone": "Africa/Kampala"
  },
  {
    "code": "FZO",
    "name": "Bristol Filton",
    "city": "Bristol",
    "country": "United Kingdom",
    "lat": 51.519444,
    "lng": -2.590833,
    "terminal": null,
    "gate": null,
    "timezone": "Europe/London"
  },
  {
    "code": "OYE",
    "name": "Oyem",
    "city": "Oyem",
    "country": "Gabon",
    "lat": 1.543108,
    "lng": 11.581361,
    "terminal": null,
    "gate": null,
    "timezone": "Africa/Libreville"
  },
  {
    "code": "XWY",
    "name": null,
    "city": null,
    "country": null,
    "lat": 0.0,
    "lng": 0.0,
    "terminal": null,
    "gate": null,
    "timezone": "America/Toronto"
  },
  {
    "code": "OZH",
    "name": "Zaporizhzhia International Airport",
    "city": "Zaporozhye",
    "country": "Ukraine",
    "lat": 47.867,
    "lng": 35.3157,
    "terminal": null,
    "gate": null,
    "timezone": "Europe/Zaporozhye"
  },
  {
    "code": "OZC",
    "name": "Ozamis",
    "city": "Ozamis",
    "country": "Philippines",
    "lat": 8.178508,
    "lng": 123.841731,
    "terminal": null,
    "gate": null,
    "timezone": "Asia/Manila"
  },
  {
    "code": "XVV",
    "name": "Train Station",
    "city": "Belleville",
    "country": "Canada",
    "lat": 44.1793,
    "lng": -77.3747,
    "terminal": null,
    "gate": null,
    "timezone": "America/Toronto"
  },
  {
    "code": "ONT",
    "name": "Ontario Intl",
    "city": "Ontario",
    "country": "United States",
    "lat": 34.056,
    "lng": -117.601194,
    "terminal": null,
    "gate": null,
    "timezone": "America/Los_Angeles"
  },
  {
    "code": "FLA",
    "name": "Gustavo Artunduaga Paredes",
    "city": "Florencia",
    "country": "Colombia",
    "lat": 1.589189,
    "lng": -75.564372,
    "terminal": null,
    "gate": null,
    "timezone": "America/Bogota"
  },
  {
    "code": "XUZ",
    "name": "Xuzhou Guanyin Airport",
    "city": "Xuzhou",
    "country": "China",
    "lat": 34.16,
    "lng": 117.11,
    "terminal": null,
    "gate": null,
    "timezone": "Asia/Shanghai"
  },
  {
    "code": "FKI",
    "name": "Kisangani Simisini",
    "city": "Kisangani",
    "country": "Congo (Kinshasa)",
    "lat": 0.5175,
    "lng": 25.155014,
    "terminal": null,
    "gate": null,
    "timezone": "Africa/Lubumbashi"
  },
  {
    "code": "OND",
    "name": "Ondangwa Airport",
    "city": "Ondangwa",
    "country": "Namibia",
    "lat": -17.8782,
    "lng": 15.9526,
    "terminal": null,
    "gate": null,
    "timezone": "Africa/Windhoek"
  },
  {
    "code": "ONG",
    "name": "Mornington Island Airport",
    "city": "Mornington Island",
    "country": "Australia",
    "lat": -16.6625,
    "lng": 139.178,
    "terminal": null,
    "gate": null,
    "timezone": "Australia/Lindeman"
  },
  {
    "code": "FKS",
    "name": "Fukushima Airport",
    "city": "Fukushima",
    "country": "Japan",
    "lat": 37.2274,
    "lng": 140.431,
    "terminal": null,
    "gate": null,
    "timezone": "Asia/Tokyo"
  },
  {
    "code": "FKQ",
    "name": "Fak Fak",
    "city": "Fak Fak",
    "country": "Indonesia",
    "lat": -2.920192,
    "lng": 132.267031,
    "terminal": null,
    "gate": null,
    "timezone": "Asia/Jayapura"
  },
  {
    "code": "ONL",
    "name": null,
    "city": null,
    "country": null,
    "lat": 0.0,
    "lng": 0.0,
    "terminal": null,
    "gate": null,
    "timezone": "America/Chicago"
  },
  {
    "code": "XTL",
    "name": "Tadoule Lake Airport",
    "city": "Tadoule Lake",
    "country": "Canada",
    "lat": 58.706111,
    "lng": -98.512222,
    "terminal": null,
    "gate": null,
    "timezone": "America/Rankin_Inlet"
  },
  {
    "code": "FKB",
    "name": "Baden Airpark",
    "city": "Karlsruhe/Baden-Baden",
    "country": "Germany",
    "lat": 48.7793,
    "lng": 8.08048,
    "terminal": null,
    "gate": null,
    "timezone": "Europe/Berlin"
  },
  {
    "code": "XTY",
    "name": null,
    "city": null,
    "country": null,
    "lat": 0.0,
    "lng": 0.0,
    "terminal": null,
    "gate": null,
    "timezone": "America/Toronto"
  },
  {
    "code": "XTG",
    "name": "Thargomindah Airport",
    "city": "Thargomindah",
    "country": "Australia",
    "lat": -27.9864,
    "lng": 143.811,
    "terminal": null,
    "gate": null,
    "timezone": "Australia/Broken_Hill"
  },
  {
    "code": "OOK",
    "name": "Toksook Bay Airport",
    "city": "Toksook Bay",
    "country": "United States",
    "lat": 60.541389,
    "lng": -165.087222,
    "terminal": null,
    "gate": null,
    "timezone": "America/Nome"
  },
  {
    "code": "OOL",
    "name": "Gold Coast",
    "city": "Coolangatta",
    "country": "Australia",
    "lat": -28.164444,
    "lng": 153.504722,
    "terminal": null,
    "gate": null,
    "timezone": "Australia/Brisbane"
  },
  {
    "code": "FJR",
    "name": "Fujairah Intl",
    "city": "Fujeirah",
    "country": "United Arab Emirates",
    "lat": 25.112225,
    "lng": 56.323964,
    "terminal": null,
    "gate": null,
    "timezone": "Asia/Dubai"
  },
  {
    "code": "XSP",
    "name": "Seletar",
    "city": "Singapore",
    "country": "Singapore",
    "lat": 1.41695,
    "lng": 103.867653,
    "terminal": null,
    "gate": null,
    "timezone": "Asia/Singapore"
  },
  {
    "code": "FMY",
    "name": "Page Fld",
    "city": "Fort Myers",
    "country": "United States",
    "lat": 26.586611,
    "lng": -81.86325,
    "terminal": null,
    "gate": null,
    "timezone": "America/Kentucky/Monticello"
  },
  {
    "code": "FNC",
    "name": "Madeira",
    "city": "Funchal",
    "country": "Portugal",
    "lat": 32.697889,
    "lng": -16.774453,
    "terminal": null,
    "gate": null,
    "timezone": "Atlantic/Madeira"
  },
  {
    "code": "FNA",
    "name": "Freetown Lungi",
    "city": "Freetown",
    "country": "Sierra Leone",
    "lat": 8.616444,
    "lng": -13.195489,
    "terminal": null,
    "gate": null,
    "timezone": "Africa/Freetown"
  },
  {
    "code": "FMN",
    "name": "Four Corners Rgnl",
    "city": "Farmington",
    "country": "United States",
    "lat": 36.74125,
    "lng": -108.229944,
    "terminal": null,
    "gate": null,
    "timezone": "America/Denver"
  },
  {
    "code": "OLA",
    "name": "Orland",
    "city": "Orland",
    "country": "Norway",
    "lat": 63.698908,
    "lng": 9.604003,
    "terminal": null,
    "gate": null,
    "timezone": "Europe/Oslo"
  },
  {
    "code": "OLB",
    "name": "Olbia Costa Smeralda",
    "city": "Olbia",
    "country": "Italy",
    "lat": 40.898661,
    "lng": 9.517628,
    "terminal": null,
    "gate": null,
    "timezone": "Europe/Rome"
  },
  {
    "code": "XSI",
    "name": "South Indian Lake Airport",
    "city": "South Indian Lake",
    "country": "Canada",
    "lat": 56.792778,
    "lng": -98.907222,
    "terminal": null,
    "gate": null,
    "timezone": "America/Rankin_Inlet"
  },
  {
    "code": "XSH",
    "name": "Saint-Pierre-des-Corps",
    "city": "Tours",
    "country": "France",
    "lat": 47.385626,
    "lng": 0.723347,
    "terminal": null,
    "gate": null,
    "timezone": "Europe/Paris"
  },
  {
    "code": "OLJ",
    "name": null,
    "city": null,
    "country": null,
    "lat": 0.0,
    "lng": 0.0,
    "terminal": null,
    "gate": null,
    "timezone": "Pacific/Efate"
  },
  {
    "code": "OLH",
    "name": "Old Harbor Airport",
    "city": "Old Harbor",
    "country": "United States",
    "lat": 57.218056,
    "lng": -153.269722,
    "terminal": null,
    "gate": null,
    "timezone": "America/Anchorage"
  },
  {
    "code": "FMO",
    "name": "Munster Osnabruck",
    "city": "Munster",
    "country": "Germany",
    "lat": 52.134642,
    "lng": 7.684831,
    "terminal": null,
    "gate": null,
    "timezone": "Europe/Berlin"
  },
  {
    "code": "XSC",
    "name": "South Caicos",
    "city": "South Caicos",
    "country": "Turks and Caicos Islands",
    "lat": 21.515739,
    "lng": -71.528528,
    "terminal": null,
    "gate": null,
    "timezone": "America/Grand_Turk"
  },
  {
    "code": "OLF",
    "name": "LM Clayton Airport",
    "city": "Wolf Point",
    "country": "United States",
    "lat": 48.094444,
    "lng": -105.575,
    "terminal": null,
    "gate": null,
    "timezone": "America/Denver"
  },
  {
    "code": "OMS",
    "name": "Omsk",
    "city": "Omsk",
    "country": "Russia",
    "lat": 54.967042,
    "lng": 73.310514,
    "terminal": null,
    "gate": null,
    "timezone": "Asia/Omsk"
  },
  {
    "code": "OMR",
    "name": "Oradea",
    "city": "Oradea",
    "country": "Romania",
    "lat": 47.025278,
    "lng": 21.9025,
    "terminal": null,
    "gate": null,
    "timezone": "Europe/Bucharest"
  },
  {
    "code": "XRP",
    "name": null,
    "city": null,
    "country": null,
    "lat": 0.0,
    "lng": 0.0,
    "terminal": null,
    "gate": null,
    "timezone": "America/Montreal"
  },
  {
    "code": "FLW",
    "name": "Flores",
    "city": "Flores",
    "country": "Portugal",
    "lat": 39.455272,
    "lng": -31.131361,
    "terminal": null,
    "gate": null,
    "timezone": "Atlantic/Azores"
  },
  {
    "code": "OMO",
    "name": "Mostar",
    "city": "Mostar",
    "country": "Bosnia and Herzegovina",
    "lat": 43.2829,
    "lng": 17.845878,
    "terminal": null,
    "gate": null,
    "timezone": "Europe/Belgrade"
  },
  {
    "code": "XRY",
    "name": "Jerez",
    "city": "Jerez",
    "country": "Spain",
    "lat": 36.744622,
    "lng": -6.060111,
    "terminal": null,
    "gate": null,
    "timezone": "Africa/Ceuta"
  },
  {
    "code": "FMA",
    "name": "Formosa",
    "city": "Formosa",
    "country": "Argentina",
    "lat": -26.212722,
    "lng": -58.228111,
    "terminal": null,
    "gate": null,
    "timezone": "America/Argentina/Jujuy"
  },
  {
    "code": "OMC",
    "name": "Ormoc Airport",
    "city": "Ormoc City",
    "country": "Philippines",
    "lat": 11.057997,
    "lng": 124.565322,
    "terminal": null,
    "gate": null,
    "timezone": "Asia/Manila"
  },
  {
    "code": "FLL",
    "name": "Fort Lauderdale Hollywood Intl",
    "city": "Fort Lauderdale",
    "country": "United States",
    "lat": 26.072583,
    "lng": -80.15275,
    "terminal": null,
    "gate": null,
    "timezone": "America/Kentucky/Monticello"
  },
  {
    "code": "OMD",
    "name": "Oranjemund Airport",
    "city": "Oranjemund",
    "country": "Namibia",
    "lat": -28.5847,
    "lng": 16.4467,
    "terminal": null,
    "gate": null,
    "timezone": "Africa/Windhoek"
  },
  {
    "code": "OME",
    "name": "Nome",
    "city": "Nome",
    "country": "United States",
    "lat": 64.512203,
    "lng": -165.445247,
    "terminal": null,
    "gate": null,
    "timezone": "America/Nome"
  },
  {
    "code": "FLG",
    "name": "Flagstaff Pulliam Airport",
    "city": "Flagstaff",
    "country": "United States",
    "lat": 35.140318,
    "lng": -111.6692392,
    "terminal": null,
    "gate": null,
    "timezone": "America/Phoenix"
  },
  {
    "code": "OMA",
    "name": "Eppley Afld",
    "city": "Omaha",
    "country": "United States",
    "lat": 41.303167,
    "lng": -95.894069,
    "terminal": null,
    "gate": null,
    "timezone": "America/Chicago"
  },
  {
    "code": "FLR",
    "name": "Firenze",
    "city": "Florence",
    "country": "Italy",
    "lat": 43.809953,
    "lng": 11.2051,
    "terminal": null,
    "gate": null,
    "timezone": "Europe/Rome"
  },
  {
    "code": "FLN",
    "name": "Hercilio Luz",
    "city": "Florianopolis",
    "country": "Brazil",
    "lat": -27.670489,
    "lng": -48.547181,
    "terminal": null,
    "gate": null,
    "timezone": "America/Campo_Grande"
  },
  {
    "code": "FLO",
    "name": "Florence Rgnl",
    "city": "Florence",
    "country": "United States",
    "lat": 34.185361,
    "lng": -79.723889,
    "terminal": null,
    "gate": null,
    "timezone": "America/Kentucky/Monticello"
  },
  {
    "code": "OMH",
    "name": "Uromiyeh Airport",
    "city": "Uromiyeh",
    "country": "Iran",
    "lat": 37.6681,
    "lng": 45.0687,
    "terminal": null,
    "gate": null,
    "timezone": "Asia/Tehran"
  },
  {
    "code": "XQU",
    "name": "Qualicum Beach Airport",
    "city": "Qualicum Beach",
    "country": "Canada",
    "lat": 49.337222,
    "lng": -124.393889,
    "terminal": null,
    "gate": null,
    "timezone": "America/Vancouver"
  },
  {
    "code": "ORV",
    "name": "Robert Curtis Memorial Airport",
    "city": "Noorvik",
    "country": "United States",
    "lat": 66.8175,
    "lng": -161.022222,
    "terminal": null,
    "gate": null,
    "timezone": "America/Nome"
  },
  {
    "code": "ORY",
    "name": "Orly",
    "city": "Paris",
    "country": "France",
    "lat": 48.725278,
    "lng": 2.359444,
    "terminal": null,
    "gate": null,
    "timezone": "Europe/Paris"
  },
  {
    "code": "XQP",
    "name": "La Managua",
    "city": "Quepos",
    "country": "Costa Rica",
    "lat": 9.443164,
    "lng": -84.129772,
    "terminal": null,
    "gate": null,
    "timezone": "America/Costa_Rica"
  },
  {
    "code": "ORN",
    "name": "Es Senia",
    "city": "Oran",
    "country": "Algeria",
    "lat": 35.623858,
    "lng": -0.621183,
    "terminal": null,
    "gate": null,
    "timezone": "Africa/Algiers"
  },
  {
    "code": "FOR",
    "name": "Pinto Martins Intl",
    "city": "Fortaleza",
    "country": "Brazil",
    "lat": -3.776283,
    "lng": -38.532556,
    "terminal": null,
    "gate": null,
    "timezone": "America/Fortaleza"
  },
  {
    "code": "ORK",
    "name": "Cork",
    "city": "Cork",
    "country": "Ireland",
    "lat": 51.841269,
    "lng": -8.491111,
    "terminal": null,
    "gate": null,
    "timezone": "Europe/Dublin"
  },
  {
    "code": "ORF",
    "name": "Norfolk Intl",
    "city": "Norfolk",
    "country": "United States",
    "lat": 36.894611,
    "lng": -76.201222,
    "terminal": null,
    "gate": null,
    "timezone": "America/New_York"
  },
  {
    "code": "XPX",
    "name": null,
    "city": null,
    "country": null,
    "lat": 0.0,
    "lng": 0.0,
    "terminal": null,
    "gate": null,
    "timezone": "America/Montreal"
  },
  {
    "code": "ORD",
    "name": "Chicago Ohare Intl",
    "city": "Chicago",
    "country": "United States",
    "lat": 41.978603,
    "lng": -87.904842,
    "terminal": null,
    "gate": null,
    "timezone": "America/Chicago"
  },
  {
    "code": "ORI",
    "name": "Port Lions Airport",
    "city": "Port Lions",
    "country": "United States",
    "lat": 57.885278,
    "lng": -152.846111,
    "terminal": null,
    "gate": null,
    "timezone": "America/Anchorage"
  },
  {
    "code": "ORH",
    "name": "Worcester Regional Airport",
    "city": "Worcester",
    "country": "United States",
    "lat": 42.2673,
    "lng": -71.8757,
    "terminal": null,
    "gate": null,
    "timezone": "America/New_York"
  },
  {
    "code": "XPQ",
    "name": null,
    "city": null,
    "country": null,
    "lat": 0.0,
    "lng": 0.0,
    "terminal": null,
    "gate": null,
    "timezone": "Asia/Kuala_Lumpur"
  },
  {
    "code": "FOC",
    "name": "Changle",
    "city": "Fuzhou",
    "country": "China",
    "lat": 25.935064,
    "lng": 119.663272,
    "terminal": null,
    "gate": null,
    "timezone": "Asia/Shanghai"
  },
  {
    "code": "FOG",
    "name": "Gino Lisa",
    "city": "Foggia",
    "country": "Italy",
    "lat": 41.432917,
    "lng": 15.535028,
    "terminal": null,
    "gate": null,
    "timezone": "Europe/Rome"
  },
  {
    "code": "OST",
    "name": "Oostende",
    "city": "Ostend",
    "country": "Belgium",
    "lat": 51.198889,
    "lng": 2.862222,
    "terminal": null,
    "gate": null,
    "timezone": "Europe/Brussels"
  },
  {
    "code": "XPJ",
    "name": "Montpellier Airport Railway",
    "city": "Montpellier",
    "country": "France",
    "lat": 0.0,
    "lng": 0.0,
    "terminal": null,
    "gate": null,
    "timezone": "Europe/Paris"
  },
  {
    "code": "OSW",
    "name": "Orsk Airport",
    "city": "Orsk",
    "country": "Russia",
    "lat": 51.0725,
    "lng": 58.5956,
    "terminal": null,
    "gate": null,
    "timezone": "Asia/Aqtobe"
  },
  {
    "code": "OSY",
    "name": "Namsos Høknesøra Airport",
    "city": "Namsos",
    "country": "Norway",
    "lat": 64.4722,
    "lng": 11.5786,
    "terminal": null,
    "gate": null,
    "timezone": "Europe/Oslo"
  },
  {
    "code": "XPN",
    "name": null,
    "city": null,
    "country": null,
    "lat": 0.0,
    "lng": 0.0,
    "terminal": null,
    "gate": null,
    "timezone": "America/Toronto"
  },
  {
    "code": "OSM",
    "name": null,
    "city": null,
    "country": null,
    "lat": 0.0,
    "lng": 0.0,
    "terminal": null,
    "gate": null,
    "timezone": "Asia/Baghdad"
  },
  {
    "code": "OSL",
    "name": "Gardermoen",
    "city": "Oslo",
    "country": "Norway",
    "lat": 60.193917,
    "lng": 11.100361,
    "terminal": null,
    "gate": null,
    "timezone": "Europe/Oslo"
  },
  {
    "code": "XPB",
    "name": null,
    "city": null,
    "country": null,
    "lat": 0.0,
    "lng": 0.0,
    "terminal": null,
    "gate": null,
    "timezone": "America/Vancouver"
  },
  {
    "code": "FNT",
    "name": "Bishop International",
    "city": "Flint",
    "country": "United States",
    "lat": 42.965424,
    "lng": -83.743629,
    "terminal": null,
    "gate": null,
    "timezone": "America/Detroit"
  },
  {
    "code": "OSS",
    "name": "Osh",
    "city": "Osh",
    "country": "Kyrgyzstan",
    "lat": 40.608989,
    "lng": 72.793269,
    "terminal": null,
    "gate": null,
    "timezone": "Asia/Bishkek"
  },
  {
    "code": "XPG",
    "name": "Gare du Nord",
    "city": "Paris",
    "country": "France",
    "lat": 48.880931,
    "lng": 2.355323,
    "terminal": null,
    "gate": null,
    "timezone": "Europe/Paris"
  },
  {
    "code": "OSR",
    "name": "Mosnov",
    "city": "Ostrava",
    "country": "Czech Republic",
    "lat": 49.696292,
    "lng": 18.111053,
    "terminal": null,
    "gate": null,
    "timezone": "Europe/Prague"
  },
  {
    "code": "OSD",
    "name": "Östersund Airport",
    "city": "Östersund",
    "country": "Sweden",
    "lat": 63.1944,
    "lng": 14.5003,
    "terminal": null,
    "gate": null,
    "timezone": "Europe/Stockholm"
  },
  {
    "code": "FNJ",
    "name": "Pyongyang Intl",
    "city": "Pyongyang",
    "country": "Korea",
    "lat": 39.224061,
    "lng": 125.67015,
    "terminal": null,
    "gate": null,
    "timezone": "Asia/Pyongyang"
  },
  {
    "code": "OSI",
    "name": "Osijek",
    "city": "Osijek",
    "country": "Croatia",
    "lat": 45.462667,
    "lng": 18.810156,
    "terminal": null,
    "gate": null,
    "timezone": "Europe/Belgrade"
  },
  {
    "code": "FNL",
    "name": "Fort Collins Loveland Muni",
    "city": "Fort Collins",
    "country": "United States",
    "lat": 40.451828,
    "lng": -105.011336,
    "terminal": null,
    "gate": null,
    "timezone": "America/Denver"
  },
  {
    "code": "OSK",
    "name": "Oskarshamn",
    "city": "Oskarshamn",
    "country": "Sweden",
    "lat": 57.350453,
    "lng": 16.497972,
    "terminal": null,
    "gate": null,
    "timezone": "Europe/Stockholm"
  },
  {
    "code": "FRD",
    "name": "Friday Harbor Airport",
    "city": "Friday Harbor",
    "country": "United States",
    "lat": 48.521944,
    "lng": -123.024444,
    "terminal": null,
    "gate": null,
    "timezone": "America/Los_Angeles"
  },
  {
    "code": "XOP",
    "name": null,
    "city": null,
    "country": null,
    "lat": 0.0,
    "lng": 0.0,
    "terminal": null,
    "gate": null,
    "timezone": "Europe/Paris"
  },
  {
    "code": "OPU",
    "name": "Balimo Airport",
    "city": "Balimo",
    "country": "Papua New Guinea",
    "lat": -8.05,
    "lng": 142.933,
    "terminal": null,
    "gate": null,
    "timezone": "Pacific/Port_Moresby"
  },
  {
    "code": "XOK",
    "name": null,
    "city": null,
    "country": null,
    "lat": 0.0,
    "lng": 0.0,
    "terminal": null,
    "gate": null,
    "timezone": "America/Toronto"
  },
  {
    "code": "FRA",
    "name": "Frankfurt Main",
    "city": "Frankfurt",
    "country": "Germany",
    "lat": 50.026421,
    "lng": 8.543125,
    "terminal": null,
    "gate": null,
    "timezone": "Europe/Berlin"
  },
  {
    "code": "OPO",
    "name": "Porto",
    "city": "Porto",
    "country": "Portugal",
    "lat": 41.248055,
    "lng": -8.681389,
    "terminal": null,
    "gate": null,
    "timezone": "Europe/Lisbon"
  },
  {
    "code": "OPF",
    "name": "Opa Locka",
    "city": "Miami",
    "country": "United States",
    "lat": 25.907,
    "lng": -80.278389,
    "terminal": null,
    "gate": null,
    "timezone": "America/Kentucky/Monticello"
  },
  {
    "code": "ORB",
    "name": "Orebro",
    "city": "Orebro",
    "country": "Sweden",
    "lat": 59.223733,
    "lng": 15.037956,
    "terminal": null,
    "gate": null,
    "timezone": "Europe/Stockholm"
  },
  {
    "code": "XNN",
    "name": "Xining Caojiabu Airport",
    "city": "Xining",
    "country": "China",
    "lat": 36.5275,
    "lng": 102.043,
    "terminal": null,
    "gate": null,
    "timezone": "Asia/Chongqing"
  },
  {
    "code": "XNB",
    "name": "Dubai Intl (EY)",
    "city": "Dubai",
    "country": "United Arab Emirates",
    "lat": 25.252778,
    "lng": 55.364444,
    "terminal": null,
    "gate": null,
    "timezone": "Asia/Dubai"
  },
  {
    "code": "XNA",
    "name": "NW Arkansas Regional",
    "city": "Bentonville",
    "country": "United States",
    "lat": 36.2818694,
    "lng": -94.3068111,
    "terminal": null,
    "gate": null,
    "timezone": "America/Chicago"
  },
  {
    "code": "XMY",
    "name": "Yam Island Airport",
    "city": "Yam Island",
    "country": "Australia",
    "lat": -9.90111,
    "lng": 142.776,
    "terminal": null,
    "gate": null,
    "timezone": "Australia/Lindeman"
  },
  {
    "code": "FPO",
    "name": "Grand Bahama Intl",
    "city": "Freeport",
    "country": "Bahamas",
    "lat": 26.558686,
    "lng": -78.695553,
    "terminal": null,
    "gate": null,
    "timezone": "America/Nassau"
  },
  {
    "code": "PGA",
    "name": "Page Municipal Airport",
    "city": "Page",
    "country": "United States",
    "lat": 36.9261,
    "lng": -111.4483,
    "terminal": null,
    "gate": null,
    "timezone": "America/Denver"
  },
  {
    "code": "HHH",
    "name": "Hilton Head",
    "city": "Hilton Head",
    "country": "United States",
    "lat": 32.216,
    "lng": -80.752,
    "terminal": null,
    "gate": null,
    "timezone": "America/Kentucky/Monticello"
  },
  {
    "code": "XIY",
    "name": "Xianyang",
    "city": "Xi'an",
    "country": "China",
    "lat": 34.447119,
    "lng": 108.751592,
    "terminal": null,
    "gate": null,
    "timezone": "Asia/Chongqing"
  },
  {
    "code": "HHN",
    "name": "Frankfurt Hahn",
    "city": "Hahn",
    "country": "Germany",
    "lat": 49.948672,
    "lng": 7.263892,
    "terminal": null,
    "gate": null,
    "timezone": "Europe/Berlin"
  },
  {
    "code": "PGF",
    "name": "Rivesaltes",
    "city": "Perpignan",
    "country": "France",
    "lat": 42.740442,
    "lng": 2.870667,
    "terminal": null,
    "gate": null,
    "timezone": "Europe/Paris"
  },
  {
    "code": "XJL",
    "name": null,
    "city": null,
    "country": null,
    "lat": 0.0,
    "lng": 0.0,
    "terminal": null,
    "gate": null,
    "timezone": "America/Montreal"
  },
  {
    "code": "HHZ",
    "name": null,
    "city": null,
    "country": null,
    "lat": 0.0,
    "lng": 0.0,
    "terminal": null,
    "gate": null,
    "timezone": "Pacific/Tahiti"
  },
  {
    "code": "PGV",
    "name": "Pitt-Greenville Airport",
    "city": "Greenville",
    "country": "United States",
    "lat": 35.635278,
    "lng": -77.385278,
    "terminal": null,
    "gate": null,
    "timezone": "America/New_York"
  },
  {
    "code": "XJQ",
    "name": null,
    "city": null,
    "country": null,
    "lat": 0.0,
    "lng": 0.0,
    "terminal": null,
    "gate": null,
    "timezone": "America/Montreal"
  },
  {
    "code": "HHQ",
    "name": "Hua Hin",
    "city": "Prachuap Khiri Khan",
    "country": "Thailand",
    "lat": 12.636225,
    "lng": 99.951533,
    "terminal": null,
    "gate": null,
    "timezone": "Asia/Bangkok"
  },
  {
    "code": "PGM",
    "name": null,
    "city": null,
    "country": null,
    "lat": 0.0,
    "lng": 0.0,
    "terminal": null,
    "gate": null,
    "timezone": "America/Anchorage"
  },
  {
    "code": "PGK",
    "name": "Depati Amir",
    "city": "Pangkal Pinang",
    "country": "Indonesia",
    "lat": -2.1622,
    "lng": 106.139064,
    "terminal": null,
    "gate": null,
    "timezone": "Asia/Pontianak"
  },
  {
    "code": "HIJ",
    "name": "Hiroshima",
    "city": "Hiroshima",
    "country": "Japan",
    "lat": 34.436111,
    "lng": 132.919444,
    "terminal": null,
    "gate": null,
    "timezone": "Asia/Tokyo"
  },
  {
    "code": "HIL",
    "name": "Shilavo Airport",
    "city": "Shilavo",
    "country": "Ethiopia",
    "lat": 6.08333,
    "lng": 44.7667,
    "terminal": null,
    "gate": null,
    "timezone": "Africa/Addis_Ababa"
  },
  {
    "code": "HIN",
    "name": "Sacheon Air Base",
    "city": "Sacheon",
    "country": "South Korea",
    "lat": 35.088543,
    "lng": 128.07037,
    "terminal": null,
    "gate": null,
    "timezone": "Asia/Seoul"
  },
  {
    "code": "PEU",
    "name": "Puerto Lempira Airport",
    "city": "Puerto Lempira",
    "country": "Honduras",
    "lat": 15.2622,
    "lng": -83.7812,
    "terminal": null,
    "gate": null,
    "timezone": "America/Tegucigalpa"
  },
  {
    "code": "HIB",
    "name": "Chisholm Hibbing",
    "city": "Hibbing",
    "country": "United States",
    "lat": 47.3866,
    "lng": -92.838994,
    "terminal": null,
    "gate": null,
    "timezone": "America/Menominee"
  },
  {
    "code": "PEW",
    "name": "Peshawar Intl",
    "city": "Peshawar",
    "country": "Pakistan",
    "lat": 33.993911,
    "lng": 71.514581,
    "terminal": null,
    "gate": null,
    "timezone": "Asia/Karachi"
  },
  {
    "code": "HID",
    "name": "Horn Island Airport",
    "city": "Horn Island",
    "country": "Australia",
    "lat": -10.5864,
    "lng": 142.29,
    "terminal": null,
    "gate": null,
    "timezone": "Australia/Lindeman"
  },
  {
    "code": "PEX",
    "name": "Pechora",
    "city": "Pechora",
    "country": "Russia",
    "lat": 65.070387,
    "lng": 57.082045,
    "terminal": null,
    "gate": null,
    "timezone": "Europe/Moscow"
  },
  {
    "code": "PEZ",
    "name": "Penza Airport",
    "city": "Penza",
    "country": "Russia",
    "lat": 53.1106,
    "lng": 45.0211,
    "terminal": null,
    "gate": null,
    "timezone": "Europe/Moscow"
  },
  {
    "code": "PFO",
    "name": "Pafos Intl",
    "city": "Paphos",
    "country": "Cyprus",
    "lat": 34.718039,
    "lng": 32.485731,
    "terminal": null,
    "gate": null,
    "timezone": "Asia/Nicosia"
  },
  {
    "code": "PFN",
    "name": "Panama City Bay Co Intl",
    "city": "Panama City",
    "country": "United States",
    "lat": 30.212083,
    "lng": -85.682806,
    "terminal": null,
    "gate": null,
    "timezone": "America/Chicago"
  },
  {
    "code": "PFQ",
    "name": "Parsabade Moghan Airport",
    "city": "Parsabad",
    "country": "Iran",
    "lat": 39.603606,
    "lng": 47.8815,
    "terminal": null,
    "gate": null,
    "timezone": "Asia/Tehran"
  },
  {
    "code": "HIR",
    "name": "Honiara International",
    "city": "Honiara",
    "country": "Solomon Islands",
    "lat": -9.428,
    "lng": 160.054789,
    "terminal": null,
    "gate": null,
    "timezone": "Pacific/Guadalcanal"
  },
  {
    "code": "HIS",
    "name": "Hayman Island Airport",
    "city": "Hayman Island",
    "country": "Australia",
    "lat": -20.066668,
    "lng": 148.86667,
    "terminal": null,
    "gate": null,
    "timezone": "Australia/Lindeman"
  },
  {
    "code": "XKH",
    "name": "Xieng Khouang",
    "city": "Phon Savan",
    "country": "Laos",
    "lat": 19.449997,
    "lng": 103.158333,
    "terminal": null,
    "gate": null,
    "timezone": "Asia/Vientiane"
  },
  {
    "code": "XLB",
    "name": "Lac Brochet Airport",
    "city": "Lac Brochet",
    "country": "Canada",
    "lat": 58.614167,
    "lng": -101.468889,
    "terminal": null,
    "gate": null,
    "timezone": "America/Rankin_Inlet"
  },
  {
    "code": "PIE",
    "name": "St Petersburg Clearwater Intl",
    "city": "St. Petersburg",
    "country": "United States",
    "lat": 27.910167,
    "lng": -82.687389,
    "terminal": null,
    "gate": null,
    "timezone": "America/Kentucky/Monticello"
  },
  {
    "code": "PIF",
    "name": "Pingtung South",
    "city": "Pingtung",
    "country": "Taiwan",
    "lat": 22.672367,
    "lng": 120.461728,
    "terminal": null,
    "gate": null,
    "timezone": "Asia/Taipei"
  },
  {
    "code": "PIA",
    "name": "Peoria Regional",
    "city": "Peoria",
    "country": "United States",
    "lat": 40.664203,
    "lng": -89.693258,
    "terminal": null,
    "gate": null,
    "timezone": "America/Chicago"
  },
  {
    "code": "PIB",
    "name": "Hattiesburg Laurel Regional Airport",
    "city": "Hattiesburg/Laurel",
    "country": "United States",
    "lat": 31.4671,
    "lng": -89.3371,
    "terminal": null,
    "gate": null,
    "timezone": "America/Chicago"
  },
  {
    "code": "HFE",
    "name": "Luogang",
    "city": "Hefei",
    "country": "China",
    "lat": 31.780019,
    "lng": 117.298436,
    "terminal": null,
    "gate": null,
    "timezone": "Asia/Shanghai"
  },
  {
    "code": "XKV",
    "name": null,
    "city": null,
    "country": null,
    "lat": 0.0,
    "lng": 0.0,
    "terminal": null,
    "gate": null,
    "timezone": "America/Halifax"
  },
  {
    "code": "HFA",
    "name": "Haifa",
    "city": "Haifa",
    "country": "Israel",
    "lat": 32.809444,
    "lng": 35.043056,
    "terminal": null,
    "gate": null,
    "timezone": "Asia/Jerusalem"
  },
  {
    "code": "PHX",
    "name": "Phoenix Sky Harbor Intl",
    "city": "Phoenix",
    "country": "United States",
    "lat": 33.434278,
    "lng": -112.011583,
    "terminal": null,
    "gate": null,
    "timezone": "America/Phoenix"
  },
  {
    "code": "XKS",
    "name": "Kasabonika Airport",
    "city": "Kasabonika",
    "country": "Canada",
    "lat": 53.5247,
    "lng": -88.6428,
    "terminal": null,
    "gate": null,
    "timezone": "America/Rainy_River"
  },
  {
    "code": "PIX",
    "name": "Pico",
    "city": "Pico",
    "country": "Portugal",
    "lat": 38.554333,
    "lng": -28.441333,
    "terminal": null,
    "gate": null,
    "timezone": "Atlantic/Azores"
  },
  {
    "code": "XLS",
    "name": "Saint Louis",
    "city": "St. Louis",
    "country": "Senegal",
    "lat": 16.050761,
    "lng": -16.463172,
    "terminal": null,
    "gate": null,
    "timezone": "Africa/Dakar"
  },
  {
    "code": "PIW",
    "name": null,
    "city": null,
    "country": null,
    "lat": 0.0,
    "lng": 0.0,
    "terminal": null,
    "gate": null,
    "timezone": "America/Winnipeg"
  },
  {
    "code": "XLQ",
    "name": null,
    "city": null,
    "country": null,
    "lat": 0.0,
    "lng": 0.0,
    "terminal": null,
    "gate": null,
    "timezone": "America/Toronto"
  },
  {
    "code": "PIU",
    "name": "Capitan Fap Guillermo Concha Iberico",
    "city": "Piura",
    "country": "Peru",
    "lat": -5.20575,
    "lng": -80.616444,
    "terminal": null,
    "gate": null,
    "timezone": "America/Lima"
  },
  {
    "code": "PIT",
    "name": "Pittsburgh Intl",
    "city": "Pittsburgh",
    "country": "United States",
    "lat": 40.491467,
    "lng": -80.232872,
    "terminal": null,
    "gate": null,
    "timezone": "America/Detroit"
  },
  {
    "code": "PIS",
    "name": "Biard",
    "city": "Poitiers",
    "country": "France",
    "lat": 46.587745,
    "lng": 0.306666,
    "terminal": null,
    "gate": null,
    "timezone": "Europe/Paris"
  },
  {
    "code": "PIR",
    "name": "Pierre Regional Airport",
    "city": "Pierre",
    "country": "United States",
    "lat": 44.3827,
    "lng": -100.286,
    "terminal": null,
    "gate": null,
    "timezone": "America/North_Dakota/Center"
  },
  {
    "code": "XLM",
    "name": null,
    "city": null,
    "country": null,
    "lat": 0.0,
    "lng": 0.0,
    "terminal": null,
    "gate": null,
    "timezone": "America/Montreal"
  },
  {
    "code": "XLJ",
    "name": null,
    "city": null,
    "country": null,
    "lat": 0.0,
    "lng": 0.0,
    "terminal": null,
    "gate": null,
    "timezone": "America/Halifax"
  },
  {
    "code": "PIP",
    "name": "Pilot Point Airport",
    "city": "Pilot Point",
    "country": "United States",
    "lat": 57.585393,
    "lng": -157.571944,
    "terminal": null,
    "gate": null,
    "timezone": "America/Anchorage"
  },
  {
    "code": "HFT",
    "name": "Hammerfest Airport",
    "city": "Hammerfest",
    "country": "Norway",
    "lat": 70.679722,
    "lng": 23.668889,
    "terminal": null,
    "gate": null,
    "timezone": "Europe/Oslo"
  },
  {
    "code": "HFS",
    "name": "Hagfors Airport",
    "city": "Hagfors",
    "country": "Sweden",
    "lat": 60.020064,
    "lng": 13.578908,
    "terminal": null,
    "gate": null,
    "timezone": "Europe/Stockholm"
  },
  {
    "code": "PIK",
    "name": "Prestwick",
    "city": "Prestwick",
    "country": "United Kingdom",
    "lat": 55.509444,
    "lng": -4.586667,
    "terminal": null,
    "gate": null,
    "timezone": "Europe/London"
  },
  {
    "code": "XMB",
    "name": "M'Bahiakro",
    "city": "M'Bahiakro",
    "country": "Cote d'Ivoire",
    "lat": 7.45,
    "lng": -4.333333,
    "terminal": null,
    "gate": null,
    "timezone": "Europe/Berlin"
  },
  {
    "code": "HGL",
    "name": "Helgoland-Düne Airport",
    "city": "Helgoland",
    "country": "Germany",
    "lat": 54.1853,
    "lng": 7.91583,
    "terminal": null,
    "gate": null,
    "timezone": "Europe/Berlin"
  },
  {
    "code": "PHE",
    "name": "Port Hedland Intl",
    "city": "Port Hedland",
    "country": "Australia",
    "lat": -20.377778,
    "lng": 118.626389,
    "terminal": null,
    "gate": null,
    "timezone": "Australia/Perth"
  },
  {
    "code": "PHF",
    "name": "Newport News Williamsburg Intl",
    "city": "Newport News",
    "country": "United States",
    "lat": 37.131894,
    "lng": -76.492989,
    "terminal": null,
    "gate": null,
    "timezone": "America/New_York"
  },
  {
    "code": "HGN",
    "name": "Mae Hong Son",
    "city": "Mae Hong Son",
    "country": "Thailand",
    "lat": 19.301667,
    "lng": 97.975,
    "terminal": null,
    "gate": null,
    "timezone": "Asia/Bangkok"
  },
  {
    "code": "PHG",
    "name": null,
    "city": null,
    "country": null,
    "lat": 0.0,
    "lng": 0.0,
    "terminal": null,
    "gate": null,
    "timezone": "Africa/Lagos"
  },
  {
    "code": "HGH",
    "name": "Xiaoshan",
    "city": "Hangzhou",
    "country": "China",
    "lat": 30.229503,
    "lng": 120.434453,
    "terminal": null,
    "gate": null,
    "timezone": "Asia/Shanghai"
  },
  {
    "code": "PHC",
    "name": "Port Harcourt Intl",
    "city": "Port Hartcourt",
    "country": "Nigeria",
    "lat": 5.015494,
    "lng": 6.949594,
    "terminal": null,
    "gate": null,
    "timezone": "Africa/Lagos"
  },
  {
    "code": "XLY",
    "name": null,
    "city": null,
    "country": null,
    "lat": 0.0,
    "lng": 0.0,
    "terminal": null,
    "gate": null,
    "timezone": "America/Toronto"
  },
  {
    "code": "HGD",
    "name": "Hughenden Airport",
    "city": "Hughenden",
    "country": "Australia",
    "lat": -20.815,
    "lng": 144.225,
    "terminal": null,
    "gate": null,
    "timezone": "Australia/Lindeman"
  },
  {
    "code": "XLZ",
    "name": null,
    "city": null,
    "country": null,
    "lat": 0.0,
    "lng": 0.0,
    "terminal": null,
    "gate": null,
    "timezone": "America/Halifax"
  },
  {
    "code": "PGX",
    "name": "Bassillac",
    "city": "Perigueux",
    "country": "France",
    "lat": 45.198055,
    "lng": 0.815556,
    "terminal": null,
    "gate": null,
    "timezone": "Europe/Paris"
  },
  {
    "code": "HGA",
    "name": "Egal Intl",
    "city": "Hargeisa",
    "country": "Somalia",
    "lat": 9.518167,
    "lng": 44.088758,
    "terminal": null,
    "gate": null,
    "timezone": "Africa/Mogadishu"
  },
  {
    "code": "XLV",
    "name": null,
    "city": null,
    "country": null,
    "lat": 0.0,
    "lng": 0.0,
    "terminal": null,
    "gate": null,
    "timezone": "America/Toronto"
  },
  {
    "code": "XMS",
    "name": "Coronel E Carvajal",
    "city": "Macas",
    "country": "Ecuador",
    "lat": -2.299167,
    "lng": -78.12075,
    "terminal": null,
    "gate": null,
    "timezone": "America/Guayaquil"
  },
  {
    "code": "XMN",
    "name": "Gaoqi",
    "city": "Xiamen",
    "country": "China",
    "lat": 24.544036,
    "lng": 118.127739,
    "terminal": null,
    "gate": null,
    "timezone": "Asia/Shanghai"
  },
  {
    "code": "PHS",
    "name": "Phitsanulok",
    "city": "Phitsanulok",
    "country": "Thailand",
    "lat": 16.782939,
    "lng": 100.279122,
    "terminal": null,
    "gate": null,
    "timezone": "Asia/Bangkok"
  },
  {
    "code": "PHL",
    "name": "Philadelphia Intl",
    "city": "Philadelphia",
    "country": "United States",
    "lat": 39.871944,
    "lng": -75.241139,
    "terminal": null,
    "gate": null,
    "timezone": "America/New_York"
  },
  {
    "code": "PHO",
    "name": "Point Hope Airport",
    "city": "Point Hope",
    "country": "United States",
    "lat": 68.3488,
    "lng": -166.799,
    "terminal": null,
    "gate": null,
    "timezone": "America/Nome"
  },
  {
    "code": "HGU",
    "name": "Mount Hagen",
    "city": "Mount Hagen",
    "country": "Papua New Guinea",
    "lat": -5.826789,
    "lng": 144.295861,
    "terminal": null,
    "gate": null,
    "timezone": "Pacific/Port_Moresby"
  },
  {
    "code": "XMH",
    "name": "Manihi",
    "city": "Manihi",
    "country": "French Polynesia",
    "lat": -14.436764,
    "lng": -146.070056,
    "terminal": null,
    "gate": null,
    "timezone": "Pacific/Tahiti"
  },
  {
    "code": "HLD",
    "name": "Dongshan",
    "city": "Hailar",
    "country": "China",
    "lat": 49.204997,
    "lng": 119.825,
    "terminal": null,
    "gate": null,
    "timezone": "Asia/Harbin"
  },
  {
    "code": "PKA",
    "name": null,
    "city": null,
    "country": null,
    "lat": 0.0,
    "lng": 0.0,
    "terminal": null,
    "gate": null,
    "timezone": "America/Nome"
  },
  {
    "code": "XER",
    "name": null,
    "city": null,
    "country": null,
    "lat": 0.0,
    "lng": 0.0,
    "terminal": null,
    "gate": null,
    "timezone": "Europe/Paris"
  },
  {
    "code": "HLH",
    "name": "Ulanhot Airport",
    "city": "Ulanhot",
    "country": "China",
    "lat": 46.083,
    "lng": 122.017,
    "terminal": null,
    "gate": null,
    "timezone": "Asia/Harbin"
  },
  {
    "code": "HLN",
    "name": "Helena Rgnl",
    "city": "Helena",
    "country": "United States",
    "lat": 46.606806,
    "lng": -111.98275,
    "terminal": null,
    "gate": null,
    "timezone": "America/Boise"
  },
  {
    "code": "PKE",
    "name": "Parkes Airport",
    "city": "Parkes",
    "country": "Australia",
    "lat": -33.1314,
    "lng": 148.239,
    "terminal": null,
    "gate": null,
    "timezone": "Australia/Broken_Hill"
  },
  {
    "code": "PKC",
    "name": "Yelizovo",
    "city": "Petropavlovsk",
    "country": "Russia",
    "lat": 53.167889,
    "lng": 158.453669,
    "terminal": null,
    "gate": null,
    "timezone": "Asia/Kamchatka"
  },
  {
    "code": "PKG",
    "name": "Pulau Pangkor Airport",
    "city": "Pangkor Island",
    "country": "Malaysia",
    "lat": 4.24472,
    "lng": 100.553,
    "terminal": null,
    "gate": null,
    "timezone": "Asia/Kuala_Lumpur"
  },
  {
    "code": "PKK",
    "name": "Pakhokku Airport",
    "city": "Pakhokku",
    "country": "Burma",
    "lat": 21.3333,
    "lng": 95.1,
    "terminal": null,
    "gate": null,
    "timezone": "Asia/Rangoon"
  },
  {
    "code": "XFE",
    "name": null,
    "city": null,
    "country": null,
    "lat": 0.0,
    "lng": 0.0,
    "terminal": null,
    "gate": null,
    "timezone": "America/Montreal"
  },
  {
    "code": "PKR",
    "name": "Pokhara",
    "city": "Pokhara",
    "country": "Nepal",
    "lat": 28.200881,
    "lng": 83.982056,
    "terminal": null,
    "gate": null,
    "timezone": "Asia/Kathmandu"
  },
  {
    "code": "XFD",
    "name": null,
    "city": null,
    "country": null,
    "lat": 0.0,
    "lng": 0.0,
    "terminal": null,
    "gate": null,
    "timezone": "America/Toronto"
  },
  {
    "code": "PKP",
    "name": "Puka Puka",
    "city": "Puka Puka",
    "country": "French Polynesia",
    "lat": -14.809458,
    "lng": -138.812811,
    "terminal": null,
    "gate": null,
    "timezone": "Pacific/Tahiti"
  },
  {
    "code": "PKU",
    "name": "Sultan Syarif Kasim Ii",
    "city": "Pekanbaru",
    "country": "Indonesia",
    "lat": 0.460786,
    "lng": 101.444539,
    "terminal": null,
    "gate": null,
    "timezone": "Asia/Pontianak"
  },
  {
    "code": "XFG",
    "name": null,
    "city": null,
    "country": null,
    "lat": 0.0,
    "lng": 0.0,
    "terminal": null,
    "gate": null,
    "timezone": "America/Montreal"
  },
  {
    "code": "XFM",
    "name": null,
    "city": null,
    "country": null,
    "lat": 0.0,
    "lng": 0.0,
    "terminal": null,
    "gate": null,
    "timezone": "America/Vancouver"
  },
  {
    "code": "PKY",
    "name": "Tjilik Riwut",
    "city": "Palangkaraya",
    "country": "Indonesia",
    "lat": -2.225128,
    "lng": 113.942661,
    "terminal": null,
    "gate": null,
    "timezone": "Asia/Pontianak"
  },
  {
    "code": "XFL",
    "name": "Flagler County Airport",
    "city": "Flagler",
    "country": "United States",
    "lat": 29.2821,
    "lng": -81.1212,
    "terminal": null,
    "gate": null,
    "timezone": "America/Montreal"
  },
  {
    "code": "PKZ",
    "name": "Pakse",
    "city": "Pakse",
    "country": "Laos",
    "lat": 15.132053,
    "lng": 105.781417,
    "terminal": null,
    "gate": null,
    "timezone": "Asia/Vientiane"
  },
  {
    "code": "XFK",
    "name": null,
    "city": null,
    "country": null,
    "lat": 0.0,
    "lng": 0.0,
    "terminal": null,
    "gate": null,
    "timezone": "America/Montreal"
  },
  {
    "code": "HMA",
    "name": "Khanty Mansiysk Airport",
    "city": "Khanty-Mansiysk",
    "country": "Russia",
    "lat": 61.028479,
    "lng": 69.086067,
    "terminal": null,
    "gate": null,
    "timezone": "Asia/Yekaterinburg"
  },
  {
    "code": "XFN",
    "name": "Xiangfan Airport",
    "city": "Xiangfan",
    "country": "China",
    "lat": 32.1506,
    "lng": 112.291,
    "terminal": null,
    "gate": null,
    "timezone": "Asia/Shanghai"
  },
  {
    "code": "PIZ",
    "name": "Point Lay Lrrs",
    "city": "Point Lay",
    "country": "United States",
    "lat": 69.732875,
    "lng": -163.005342,
    "terminal": null,
    "gate": null,
    "timezone": "America/Nome"
  },
  {
    "code": "HME",
    "name": "Oued Irara",
    "city": "Hassi Messaoud",
    "country": "Algeria",
    "lat": 31.672972,
    "lng": 6.140444,
    "terminal": null,
    "gate": null,
    "timezone": "Africa/Algiers"
  },
  {
    "code": "XFQ",
    "name": null,
    "city": null,
    "country": null,
    "lat": 0.0,
    "lng": 0.0,
    "terminal": null,
    "gate": null,
    "timezone": "America/Montreal"
  },
  {
    "code": "XFS",
    "name": null,
    "city": null,
    "country": null,
    "lat": 0.0,
    "lng": 0.0,
    "terminal": null,
    "gate": null,
    "timezone": "America/Montreal"
  },
  {
    "code": "PJA",
    "name": "Pajala Airport",
    "city": "Pajala",
    "country": "Sweden",
    "lat": 67.2456,
    "lng": 23.0689,
    "terminal": null,
    "gate": null,
    "timezone": "Europe/Stockholm"
  },
  {
    "code": "XFV",
    "name": null,
    "city": null,
    "country": null,
    "lat": 0.0,
    "lng": 0.0,
    "terminal": null,
    "gate": null,
    "timezone": "America/Toronto"
  },
  {
    "code": "HMO",
    "name": "General Ignacio P Garcia Intl",
    "city": "Hermosillo",
    "country": "Mexico",
    "lat": 29.095858,
    "lng": -111.047858,
    "terminal": null,
    "gate": null,
    "timezone": "America/Hermosillo"
  },
  {
    "code": "XFY",
    "name": null,
    "city": null,
    "country": null,
    "lat": 0.0,
    "lng": 0.0,
    "terminal": null,
    "gate": null,
    "timezone": "America/Halifax"
  },
  {
    "code": "XFZ",
    "name": null,
    "city": null,
    "country": null,
    "lat": 0.0,
    "lng": 0.0,
    "terminal": null,
    "gate": null,
    "timezone": "America/Halifax"
  },
  {
    "code": "PJG",
    "name": "Panjgur",
    "city": "Panjgur",
    "country": "Pakistan",
    "lat": 26.954547,
    "lng": 64.132517,
    "terminal": null,
    "gate": null,
    "timezone": "Asia/Karachi"
  },
  {
    "code": "HMV",
    "name": "Hemavan Airport",
    "city": "Hemavan",
    "country": "Sweden",
    "lat": 65.806111,
    "lng": 15.082778,
    "terminal": null,
    "gate": null,
    "timezone": "Europe/Stockholm"
  },